field_1,address,checkins,group_id,lat,lng,place_id,title,labels,id,stats,main_categorie
2510,"Пионерская пл 1, ТЮЗ",429,189897,30.334607,59.92005,2368749,Театр Юных Зрителей им. А.А. Брянцева // ТЮЗ,0,4e785306b0fb305db5c811bc,"{'tipCount': 79, 'usersCount': 7216, 'checkinsCount': 11857}",Arts & Entertainment
2524,Загородный проспект 27,98,,30.33697,59.924199,7015748,Джазовая филармония,0,4cacb5eb5a1e9521bdcc8ece,"{'tipCount': 74, 'usersCount': 3740, 'checkinsCount': 5707}",Arts & Entertainment
2525,Загородный просп. 27,131,,30.33697,59.924199,585,Филармония джазовой музыки,0,4cacb5eb5a1e9521bdcc8ece,"{'tipCount': 74, 'usersCount': 3740, 'checkinsCount': 5707}",Arts & Entertainment
2527,Загородный проспект 27,24,,30.33697,59.924199,16397873,Jazz Philharmonic Hall,0,4cacb5eb5a1e9521bdcc8ece,"{'tipCount': 74, 'usersCount': 3740, 'checkinsCount': 5707}",Arts & Entertainment
2556,Островского площадь 6,81,,30.336206,59.931788,9111838,Музей театрального и музыкального искусства,0,4e214c87d4c0d32590ed9fcb,"{'tipCount': 20, 'usersCount': 1238, 'checkinsCount': 2307}",Arts & Entertainment
2638,"Садовая 12, Кино без Попкорна",38,3818033,30.336116,59.935534,2381219,"Киноклуб  ""КИНО БЕЗ ПОПКОРНА"". Кинопоказы в Спб",0,58973d24326c5a6fe1462cc4,"{'tipCount': 2, 'usersCount': 38, 'checkinsCount': 38}",Arts & Entertainment
2887,"Марата д.86, м.Звенигородская, м.Пушкинская ТРК Нептун",131,28411675,30.339,59.918918,720630,Океанариум,0,4c123608b7b9c9284451a737,"{'tipCount': 262, 'usersCount': 16087, 'checkinsCount': 18425}",Arts & Entertainment
2889,улица Марата 86,742,,30.339,59.918918,5878968,Океанариум,0,4c123608b7b9c9284451a737,"{'tipCount': 262, 'usersCount': 16087, 'checkinsCount': 18425}",Arts & Entertainment
2912,"Санкт-Петербург, ул. Правды 12",73,,30.342674,59.923243,10497642,"Дом живых бабочек ""Миндо""",0,4fe6dd68e4b0116a386b20fb,"{'tipCount': 48, 'usersCount': 1398, 'checkinsCount': 1498}",Arts & Entertainment
2971,Фонтанки реки набережная 41,22,,30.339269,59.930705,12341356,Концертный Дом Кочневой,0,4f646278e4b04b24438556e1,"{'tipCount': 11, 'usersCount': 678, 'checkinsCount': 962}",Arts & Entertainment
2973,Фонтанки реки набережная 51,10,,30.337392,59.9297,18363988,"Александринский театр, Новая сцена",0,5188b904498e470e9355f967,"{'tipCount': 69, 'usersCount': 6590, 'checkinsCount': 17261}",Arts & Entertainment
2989,Рубенштейна 13,15,,30.343878,59.929434,6188715,Рубенштейна 13,0,5172664c498ece19a088b8b9,"{'tipCount': 2, 'usersCount': 175, 'checkinsCount': 262}",Arts & Entertainment
3053,"Набережная реки Фонтанки, 21",52,149060086,30.342997,59.934867,18439478,Музей Фаберже,0,528b1a9611d20cbd10276bb2,"{'tipCount': 200, 'usersCount': 10173, 'checkinsCount': 13219}",Arts & Entertainment
3087,"наб. P. Фонтанки, 3",142,,30.341335,59.938685,15138009,Большой Санкт-Петербургский цирк,0,4c091c94340720a1f5288493,"{'tipCount': 168, 'usersCount': 10030, 'checkinsCount': 14223}",Arts & Entertainment
3089,Фонтанки реки набережная 3,36,,30.341335,59.938685,14664063,Цирк Чинизелли - Большой Санкт-Петербургскиий Государственный Цирк,0,4c091c94340720a1f5288493,"{'tipCount': 168, 'usersCount': 10030, 'checkinsCount': 14223}",Arts & Entertainment
3118,"наб. реки Фонтанки, 24",90,28775299,30.34209,59.939915,759686,Галерея искусств KGallery,0,4c6c24f4d08695214ad603ea,"{'tipCount': 18, 'usersCount': 1243, 'checkinsCount': 1834}",Arts & Entertainment
3272,улица Коломенская 46,12,,30.349753,59.920668,10161946,Кабаре на коломенской,0,4da176067aee54818cb2c1fe,"{'tipCount': 28, 'usersCount': 968, 'checkinsCount': 2098}",Arts & Entertainment
3283,улица Разъезжая 21/19,24,,30.346986,59.924091,16498740,Интеллектуальный кластер Игры разума,0,55903ea3498e00f478a5fce4,"{'tipCount': 6, 'usersCount': 646, 'checkinsCount': 1116}",Arts & Entertainment
3326,улица Рубинштейна 13,43,,30.343878,59.929434,11069106,"Музыкальный Театр ""Зазеркалье""",0,4d8c84361d06b1f7e52d1a3b,"{'tipCount': 33, 'usersCount': 1692, 'checkinsCount': 5039}",Arts & Entertainment
3339,улица Рубинштейна 11,10,,30.344165,59.92993,18225563,"Санкт-Петербург, Рубинштейна 13",0,5172664c498ece19a088b8b9,"{'tipCount': 2, 'usersCount': 175, 'checkinsCount': 262}",Arts & Entertainment
3352,Владимирский проспект 13,10,,30.347291,59.929777,6605049,"Ревизор, театр Ленсовета",0,4cab3d1bd971b1f7572829e1,"{'tipCount': 231, 'usersCount': 12950, 'checkinsCount': 23337}",Arts & Entertainment
3375,Владимирский проспект 12,23,,30.348225,59.930056,14917145,"Театр имени Ленсовета,",0,4cab3d1bd971b1f7572829e1,"{'tipCount': 231, 'usersCount': 12950, 'checkinsCount': 23337}",Arts & Entertainment
3422,Невский проспект 78,51,,30.348594,59.932879,6548876,"Невский пр. , 78",0,503a3108e4b0ee7faf3dac2a,"{'tipCount': 0, 'usersCount': 15, 'checkinsCount': 15}",Arts & Entertainment
3443,Литейный проспект 58,32,,30.348468,59.934033,6602267,"Галерея ""Борей"", Литейный 58",0,4f5201fde4b06025e84eedae,"{'tipCount': 27, 'usersCount': 808, 'checkinsCount': 1393}",Arts & Entertainment
3446,Невский проспект 55,27,,30.35022,59.932031,8488031,Кафе счастье,0,576c302b498e68bc89a87b8e,"{'tipCount': 0, 'usersCount': 1, 'checkinsCount': 6}",Arts & Entertainment
3450,Невский проспект 84–86,20,,30.350498,59.932644,15269427,Дом Актера им.С.Станиславского,0,4f1332abe4b0456268f1dd03,"{'tipCount': 8, 'usersCount': 1220, 'checkinsCount': 2200}",Arts & Entertainment
3470,"Литейный проспект, 53",102,,30.347704,59.936332,15622630,"Фонтанный Дом, Музей Анны Ахматовой",0,4cd53f5967adf04d6de72b91,"{'tipCount': 93, 'usersCount': 5560, 'checkinsCount': 7449}",Arts & Entertainment
3474,"Белинского ул. 9, THE HAT BAR",278,41043967,30.346599,59.93809,2931342,THE HAT BAR | JAZZ JAM | ШЛЯПА,0,4f9bfe03e4b04dce44b25a6a,"{'tipCount': 379, 'usersCount': 13559, 'checkinsCount': 34891}",Arts & Entertainment
3480,улица Белинского 9,53,,30.346599,59.93809,9555968,The HAT,0,4f9bfe03e4b04dce44b25a6a,"{'tipCount': 379, 'usersCount': 13559, 'checkinsCount': 34891}",Arts & Entertainment
3491,улица Жуковского 5,12,,30.350848,59.935795,6958974,Часы не спешат,0,5243328f498ea77b1b07efe7,"{'tipCount': 29, 'usersCount': 604, 'checkinsCount': 1509}",Arts & Entertainment
3679,Лиговский 66,31,20098804,30.356086,59.922869,3232148,Pianobar Niko,0,59c414ab0531e84507a56d2e,"{'tipCount': 1, 'usersCount': 51, 'checkinsCount': 67}",Arts & Entertainment
3701,"улица Марата, 24-а",106,20970220,30.353813,59.927455,6317035,Музей Арктики и Антарктики,0,4db40e31fc607e0aa231bc63,"{'tipCount': 50, 'usersCount': 4991, 'checkinsCount': 6034}",Arts & Entertainment
3702,улица Марата 24а,64,,30.353813,59.927455,181008,Российский государственный музей Арктики и Антарктики,0,4db40e31fc607e0aa231bc63,"{'tipCount': 50, 'usersCount': 4991, 'checkinsCount': 6034}",Arts & Entertainment
3705,"ул. Марата 24 а,",22,64951552,30.353813,59.927455,7510274,МУЗЕЙ АРКТИКИ И АНТАРКТИКИ,0,4db40e31fc607e0aa231bc63,"{'tipCount': 50, 'usersCount': 4991, 'checkinsCount': 6034}",Arts & Entertainment
3731,улица Стремянная 8,15,,30.351343,59.931134,13552491,Музей- квартира Самойловых,0,4f993c7be4b05c38102cbb23,"{'tipCount': 14, 'usersCount': 298, 'checkinsCount': 433}",Arts & Entertainment
3823,улица Некрасова 10,12,,30.352277,59.939158,17554743,Большой Кукольный театр,0,4e6c7c4d52b14562865d7d3d,"{'tipCount': 88, 'usersCount': 3041, 'checkinsCount': 5788}",Arts & Entertainment
3959,просп. Лиговский 44Б,25,,30.359068,59.926445,5365138,Формула кино,0,4cfa509cee9cb60cd57289ad,"{'tipCount': 568, 'usersCount': 44475, 'checkinsCount': 131819}",Arts & Entertainment
3960,"улица Коломенская, 3",31,,30.354864,59.926287,9320928,"iLocked - Реальные квесты ""Выберись из комнаты""",0,53176ff411d29ba40629aeae,"{'tipCount': 29, 'usersCount': 1347, 'checkinsCount': 1688}",Arts & Entertainment
3977,Лиговский переулок 2,55,,30.358242,59.928731,17266273,Енотовиль,0,57cd8a85498e663d195f2cfc,"{'tipCount': 6, 'usersCount': 180, 'checkinsCount': 191}",Arts & Entertainment
3988,Лиговский просп. 53,29,,30.359338,59.929136,570,ГЭЗ-21,0,4bc363bcabf495212ab0c393,"{'tipCount': 31, 'usersCount': 1474, 'checkinsCount': 4585}",Arts & Entertainment
3993,Лиговский проспект 53,21,,30.359338,59.929136,11855816,"Арт-центр ""Пушкинская 10""",0,4c4c7127f7b49c747a699cc2,"{'tipCount': 42, 'usersCount': 4313, 'checkinsCount': 7304}",Arts & Entertainment
3998,Лиговский проспект 47,52,,30.359688,59.929736,9400957,Улица Джона Леннона,0,4dce66c1b0fb25f6e34212c4,"{'tipCount': 13, 'usersCount': 1559, 'checkinsCount': 2302}",Arts & Entertainment
4000,Лиговский проспект 45,28,,30.35993,59.930196,8758717,Музей эрос,0,56c09f42cd102af95f4794a2,"{'tipCount': 2, 'usersCount': 40, 'checkinsCount': 51}",Arts & Entertainment
4053,Невский проспект 100,12,,30.355619,59.932008,9917172,Коллизей,0,50955c71e4b0f17ed57ba62a,"{'tipCount': 43, 'usersCount': 4804, 'checkinsCount': 7406}",Arts & Entertainment
4080,улица Жуковского 28,38,,30.359472,59.936043,11474350,Anna Nova Art Gallery,0,4d495d6648a06dcb8c5a6ea2,"{'tipCount': 24, 'usersCount': 1086, 'checkinsCount': 3673}",Arts & Entertainment
4348,"Невский просп., 122",14,,30.364215,59.930818,10714211,Невский проспект 87,0,5727b62f498ec8bf78d869e8,"{'tipCount': 0, 'usersCount': 1, 'checkinsCount': 1}",Arts & Entertainment
4392,Лиговский пр. 21А,17,,30.363173,59.935187,6710939,"БКЗ ""Октябрьский"", концерт Зары",0,4bffe41492a6c928ab3d43e2,"{'tipCount': 191, 'usersCount': 25989, 'checkinsCount': 44052}",Arts & Entertainment
4509,улица 2-я Советская 23,16,,30.369354,59.931233,7539368,Salsa Social,0,50f8409ae4b03b3bfe58bac5,"{'tipCount': 3, 'usersCount': 163, 'checkinsCount': 1078}",Arts & Entertainment
5740,"29-я линия, дом 2, Эрарта",2688,19191317,30.251621,59.931896,3068445,Эрарта. Музей современного искусства,2,4c5b2c76b014ef3b45481c97,"{'tipCount': 526, 'usersCount': 33624, 'checkinsCount': 57098}",Arts & Entertainment
5743,"29 линия ВО, 2",485,,30.251621,59.931896,7212241,Эрарта,2,4c5b2c76b014ef3b45481c97,"{'tipCount': 526, 'usersCount': 33624, 'checkinsCount': 57098}",Arts & Entertainment
1295,пр. Ветеранов 101,146,,30.204836,59.834135,11322,Мираж Синема на Ветеранов,8,4be308a021d5a59356011811,"{'tipCount': 152, 'usersCount': 9502, 'checkinsCount': 31241}",Arts & Entertainment
2425,"СПб, Петровская набережная , 6",87,,30.330879,59.953263,8786576,Домик Петра I,13,4c3af17016cb2d7f32fe01a9,"{'tipCount': 36, 'usersCount': 2987, 'checkinsCount': 4050}",Arts & Entertainment
726,улица Большая Морская 44,15,,30.306786,59.931932,10085133,Дом композиторов,25,4d1a1fe281cea35dde38faec,"{'tipCount': 12, 'usersCount': 708, 'checkinsCount': 1321}",Arts & Entertainment
966,улица Большая Морская 33–35,56,,30.310999,59.933478,7079087,Союз Художников,25,4e26825f922e2f19a9d53915,"{'tipCount': 35, 'usersCount': 2472, 'checkinsCount': 3951}",Arts & Entertainment
969,"улица Малая Морская, 24, Санкт-Петербург, Россия, 190000",53,,30.309113,59.934064,5325987,Росфото,25,4c09fa5fffb8c9b6a9e76a61,"{'tipCount': 93, 'usersCount': 5419, 'checkinsCount': 10817}",Arts & Entertainment
970,"Большая Морская ул., д.38",52,,30.311323,59.933072,10862448,Выставочный зал Санкт-Петербургского Союза Художников,25,4e26825f922e2f19a9d53915,"{'tipCount': 35, 'usersCount': 2472, 'checkinsCount': 3951}",Arts & Entertainment
1049,Невский проспект 7,155,,30.31426,59.936607,8914744,Дом вверх дном - Невский проспект 5,25,53289c86498e9ff929978392,"{'tipCount': 29, 'usersCount': 2051, 'checkinsCount': 2168}",Arts & Entertainment
1051,Невский проспект 6,128,,30.314566,59.937012,10086058,Музей Дом великана,25,5420609d498e76f1b49a40e2,"{'tipCount': 98, 'usersCount': 5459, 'checkinsCount': 6225}",Arts & Entertainment
1054,Невский проспект 5,21,,30.313326,59.936719,15858495,Дом Вверх Дном,25,53289c86498e9ff929978392,"{'tipCount': 29, 'usersCount': 2051, 'checkinsCount': 2168}",Arts & Entertainment
1062,Dvortsovaya naberezhnaya 38,207,,30.313721,59.941173,8328160,The State Hermitage museum,25,4d9abff1422ea1cd52d9ec4c,"{'tipCount': 1034, 'usersCount': 75820, 'checkinsCount': 127633}",Arts & Entertainment
1065,Дворцовая набережная 38,873,,30.313721,59.941173,8300544,Государственный Эрмитаж,25,4d9abff1422ea1cd52d9ec4c,"{'tipCount': 1034, 'usersCount': 75820, 'checkinsCount': 127633}",Arts & Entertainment
1066,Dvortsovaya naberezhnaya 38,135,,30.313721,59.941173,13688464,Hermitage Saint Petersburg,25,4d9abff1422ea1cd52d9ec4c,"{'tipCount': 1034, 'usersCount': 75820, 'checkinsCount': 127633}",Arts & Entertainment
1067,Дворцовая набережная 38,476,,30.313721,59.941173,12441151,"Государственный Эрмитаж, Санкт-Петербург",25,4d9abff1422ea1cd52d9ec4c,"{'tipCount': 1034, 'usersCount': 75820, 'checkinsCount': 127633}",Arts & Entertainment
1478,улица Ефимова,45,,30.321096,59.925534,13689922,Кинотеатр Пик,25,4c15c828b7b9c928c67fad37,"{'tipCount': 285, 'usersCount': 30702, 'checkinsCount': 74723}",Arts & Entertainment
1502,Канала Грибоедова набережная 49,51,,30.31824,59.930462,15971314,Санкт-Петербург ул.Гороховая,25,52743613498e60798c7bb41b,"{'tipCount': 0, 'usersCount': 20, 'checkinsCount': 36}",Arts & Entertainment
1533,улица Большая Морская 20,52,,30.31514,59.934506,13947730,"роллердром ""Ногам Дорогу""",25,5617d5bf498e1ee7f522307e,"{'tipCount': 7, 'usersCount': 224, 'checkinsCount': 920}",Arts & Entertainment
1536,улица Большая Морская 20,12,,30.31514,59.934506,13106224,"роллер-дром ""Ногам Дорогу""",25,5617d5bf498e1ee7f522307e,"{'tipCount': 7, 'usersCount': 224, 'checkinsCount': 920}",Arts & Entertainment
1576,улица Большая Морская 5,415,,30.317305,59.937296,10167392,Музей иллюзий и дом великанов,25,5420609d498e76f1b49a40e2,"{'tipCount': 98, 'usersCount': 5459, 'checkinsCount': 6225}",Arts & Entertainment
1589,улица Большая Морская 5,18,,30.317305,59.937296,14920582,Контактный зоопарк,25,549825ea498efdb6a169d513,"{'tipCount': 15, 'usersCount': 563, 'checkinsCount': 591}",Arts & Entertainment
1595,Невский проспект 17,45,,30.320845,59.935746,8186344,Музей шоколада,25,4e4d3a79d164e69742d56649,"{'tipCount': 19, 'usersCount': 1557, 'checkinsCount': 1649}",Arts & Entertainment
1603,Дворцовая набережная 34,2266,,30.315832,59.942074,181002,Государственный Эрмитаж,25,4d9abff1422ea1cd52d9ec4c,"{'tipCount': 1034, 'usersCount': 75820, 'checkinsCount': 127633}",Arts & Entertainment
1604,Дворцовая набережная 34,177,,30.315832,59.942074,16952969,Эрмитажный театр,25,4d1e08c80901721e05187ea5,"{'tipCount': 69, 'usersCount': 5003, 'checkinsCount': 8833}",Arts & Entertainment
1836,улица Садовая 27,181,,30.323162,59.929285,6322059,"Театр ""Приют Комедианта""",25,4c6019b654ac0f47bac3b421,"{'tipCount': 100, 'usersCount': 4170, 'checkinsCount': 6683}",Arts & Entertainment
1854,Казанская ул. 7д,22,95798226,30.320315,59.931851,12064670,Лес Villa,25,582d0123db36aa599626f07a,"{'tipCount': 5, 'usersCount': 519, 'checkinsCount': 807}",Arts & Entertainment
1859,улица Казанская 12,14,,30.321725,59.932049,8408549,Галерея Алексея Сергиенко,25,4e534c786284ca6a2f6f35f8,"{'tipCount': 6, 'usersCount': 514, 'checkinsCount': 1146}",Arts & Entertainment
1863,"ул. Казанская, 7",63,,30.321042,59.932378,15156312,"место встречи ""Казанская, 7""",25,57319c06498eae73eb09afe4,"{'tipCount': 15, 'usersCount': 370, 'checkinsCount': 526}",Arts & Entertainment
1866,Казанская 7А,25,,30.321042,59.932378,12619364,Art Me,25,55cf5e7a498e80ec931adde8,"{'tipCount': 7, 'usersCount': 483, 'checkinsCount': 950}",Arts & Entertainment
1877,Казанская ул. 6,20,,30.322605,59.933054,7021494,"казанская, 6",25,5381ee81498e7fa5d0224cae,"{'tipCount': 0, 'usersCount': 2, 'checkinsCount': 3}",Arts & Entertainment
1949,Невский проспект 25,14,,30.323279,59.935457,17040603,"Выставка ""Алиса в Стране чудес""",25,586bbe00a36ecd3c2dab0f36,"{'tipCount': 2, 'usersCount': 76, 'checkinsCount': 83}",Arts & Entertainment
1999,Мойки реки набережная 47,19,,30.319183,59.937391,10920967,Лекторий Государственного Эрмитажа,25,524ae1fb498ee0678672ef91,"{'tipCount': 21, 'usersCount': 1264, 'checkinsCount': 3527}",Arts & Entertainment
2006,улица Большая Морская 6,41,,30.31806,59.937206,11875075,Дом великана,25,5420609d498e76f1b49a40e2,"{'tipCount': 98, 'usersCount': 5459, 'checkinsCount': 6225}",Arts & Entertainment
2007,улица Морская Большая 6,80,,30.31806,59.937206,6041859,Музей восковых фигур,25,4e69d63b483bf2d9e5f339fb,"{'tipCount': 17, 'usersCount': 1075, 'checkinsCount': 1265}",Arts & Entertainment
2008,Мойки реки набережная 26Б,108,,30.32142,59.939113,5870671,Фотостудия Skypoint,25,4dd6c2432271c5d36d2a7c2b,"{'tipCount': 0, 'usersCount': 5, 'checkinsCount': 6}",Arts & Entertainment
2013,Невский пр. дом 20,13,1083731,30.321114,59.936246,10247308,Центр искусства и музыки библ. им. В.Маяковского,25,512cacb6e4b05d7f4c5122dd,"{'tipCount': 2, 'usersCount': 139, 'checkinsCount': 238}",Arts & Entertainment
2014,"улица Большая Морская, дом 5",79,,30.317305,59.937296,10072903,Музей оптических иллюзий,25,5420609d498e76f1b49a40e2,"{'tipCount': 98, 'usersCount': 5459, 'checkinsCount': 6225}",Arts & Entertainment
2021,"Дворцовая площадь, 6-8",32,,30.318006,59.938703,14366775,Генеральный штаб,25,4dd4d95dfa7645a53ca1cde2,"{'tipCount': 223, 'usersCount': 17957, 'checkinsCount': 33447}",Arts & Entertainment
2023,Мойки реки набережная 22,154,,30.319884,59.939523,7015826,Государственная академическая капелла,25,4d1dfd14e56f6ea8f67e601d,"{'tipCount': 88, 'usersCount': 7226, 'checkinsCount': 12654}",Arts & Entertainment
2031,Мойки реки набережная 22А,61,,30.319991,59.939776,6370429,Капелла,25,4d1dfd14e56f6ea8f67e601d,"{'tipCount': 88, 'usersCount': 7226, 'checkinsCount': 12654}",Arts & Entertainment
2032,улица Большая Конюшенная 6,17,,30.323674,59.938013,15332560,Yellow Korner,25,58b15ca661052868fb80bcc2,"{'tipCount': 0, 'usersCount': 3, 'checkinsCount': 3}",Arts & Entertainment
2036,Дворцовая площадь 6–8,30,,30.318006,59.938703,15632291,General staff building,25,4dd4d95dfa7645a53ca1cde2,"{'tipCount': 223, 'usersCount': 17957, 'checkinsCount': 33447}",Arts & Entertainment
2061,Мойки реки набережная 12,65,,30.321213,59.941173,10423979,Музей квартира А.С. Пушкина,25,4dc460eeb3ad20ab9e32e587,"{'tipCount': 82, 'usersCount': 4816, 'checkinsCount': 7980}",Arts & Entertainment
2063,Мойки Реки набережная 12,90,,30.321213,59.941173,181010,Всероссийский музей А.С.Пушкина,25,4dc460eeb3ad20ab9e32e587,"{'tipCount': 82, 'usersCount': 4816, 'checkinsCount': 7980}",Arts & Entertainment
2066,"Большая Конюшенная ул., 2",26,,30.32433,59.939555,15084447,"Джаз бар ""48 стульев""",25,566c5ebb498eb590c8598711,"{'tipCount': 25, 'usersCount': 692, 'checkinsCount': 1372}",Arts & Entertainment
2249,"наб. реки Фонтанка, 65",580,,30.330654,59.927612,12933505,БДТ им. Товстоногова,25,4bbcb63c07809521dda0d991,"{'tipCount': 85, 'usersCount': 6994, 'checkinsCount': 15366}",Arts & Entertainment
2250,Фонтанки реки набережная 65,212,,30.330654,59.927612,11881635,Большой драматический театр имени Г. А. Товстоногова,25,4bbcb63c07809521dda0d991,"{'tipCount': 85, 'usersCount': 6994, 'checkinsCount': 15366}",Arts & Entertainment
2267,улица Ломоносова 2,121,,30.326908,59.932554,8298218,Sound bar Banka,25,534836e6498e57a4e6e7c06b,"{'tipCount': 58, 'usersCount': 3766, 'checkinsCount': 7100}",Arts & Entertainment
2293,улица Думская 7,97,,30.327762,59.933176,5783127,Арт центр Перинные ряды,25,4dc69f05d164eb9ca00bfd8e,"{'tipCount': 82, 'usersCount': 7427, 'checkinsCount': 10308}",Arts & Entertainment
2303,Думская ул. 4,27,,30.328328,59.933113,7958007,"Арт-центр ""Перинные ряды""",25,4dc69f05d164eb9ca00bfd8e,"{'tipCount': 82, 'usersCount': 7427, 'checkinsCount': 10308}",Arts & Entertainment
2312,улица Думская 1–4,18,,30.328975,59.934199,9893676,"Арт-центр ""Перинные ряды"", выстака Сальвадор Дали",25,4dc69f05d164eb9ca00bfd8e,"{'tipCount': 82, 'usersCount': 7427, 'checkinsCount': 10308}",Arts & Entertainment
2343,улица Итальянская 1,111,,30.328013,59.936886,15381193,Музей Эмоций,25,5721e374498ec5ec27c343ad,"{'tipCount': 18, 'usersCount': 569, 'checkinsCount': 614}",Arts & Entertainment
2352,Канала Грибоедова набережная 9,66,,30.327007,59.938162,7881494,"Дом 7,набережная канала грибоедова",25,4ea6a5b57ee5bebc94b9a4f3,"{'tipCount': 254, 'usersCount': 6685, 'checkinsCount': 11029}",Arts & Entertainment
2353,Искусств площадь 5,12,,30.329298,59.937549,9510738,Улица итальянская 4,25,51f2ce1f498ebe35ca27ca64,"{'tipCount': 0, 'usersCount': 12, 'checkinsCount': 12}",Arts & Entertainment
2354,Искусств площадь 1,468,,30.329469,59.937878,13126187,"Михайловский театр, Санкт-Петербург",25,4c95c9b403413704d71d7fef,"{'tipCount': 329, 'usersCount': 17225, 'checkinsCount': 40966}",Arts & Entertainment
2355,улица Инженерная 2,72,,30.328975,59.938707,17301122,Государственный Русский музей корпус Бенуа,25,4dbd3e31fa8cee727361cfae,"{'tipCount': 174, 'usersCount': 13877, 'checkinsCount': 18779}",Arts & Entertainment
2359,улица Михайловская 2,107,,30.331481,59.936061,10995784,Большой зал филармонии,25,4cacb6555a1e9521f5cc8ece,"{'tipCount': 116, 'usersCount': 13170, 'checkinsCount': 29757}",Arts & Entertainment
2361,"Санкт-Петербург, Михайловская улица, дом 2",133,,30.331481,59.936061,7195110,Санкт-Петербургская Академическая Филармония имени Д.Д. Шостаковича,25,4cacb6555a1e9521f5cc8ece,"{'tipCount': 116, 'usersCount': 13170, 'checkinsCount': 29757}",Arts & Entertainment
2369,Канала Грибоедова набережная 7,77,,30.327367,59.939068,10382511,MOD,25,4c488ce50f5aa59308a28176,"{'tipCount': 183, 'usersCount': 14846, 'checkinsCount': 29177}",Arts & Entertainment
2371,Канала Грибоедова набережная 5–7,124,,30.327654,59.939762,8856665,Mod roof,25,4c488ce50f5aa59308a28176,"{'tipCount': 183, 'usersCount': 14846, 'checkinsCount': 29177}",Arts & Entertainment
2420,Дворцовая набережная дом 2,25,,30.330618,59.946329,8369791,Санкт-Петербургский университет культуры и искусств,25,53035f9711d27fe81b69f333,"{'tipCount': 0, 'usersCount': 14, 'checkinsCount': 17}",Arts & Entertainment
2558,Островского пл.6,1172,150580,30.336206,59.931788,4614269,Александринский театр,25,4cfa77d434c1a0931e5e400e,"{'tipCount': 256, 'usersCount': 17933, 'checkinsCount': 31874}",Arts & Entertainment
2569,"Невский пр. 35, лит.В, Международная Академия Музыки",14,97239211,30.331526,59.933974,12248719,Международная Академия Музыки Елены Образцовой,25,55f54dbf498eab249f07f55e,"{'tipCount': 1, 'usersCount': 122, 'checkinsCount': 559}",Arts & Entertainment
2587,"Невский пр.,46, Буквоед",10,33241472,30.333565,59.934777,1268318,Литературная гостиная,25,5199d70e498e69b8aead45ef,"{'tipCount': 0, 'usersCount': 2, 'checkinsCount': 19}",Arts & Entertainment
2594,улица Итальянская 19,276,,30.334948,59.93607,6503424,Театр В.Ф.Комиссаржевской,25,4bd30736046076b09bf87471,"{'tipCount': 117, 'usersCount': 8431, 'checkinsCount': 11911}",Arts & Entertainment
2604,улица Итальянская 13,40,,30.333107,59.936296,18451624,"Санкт-Петербург, Театр Музыкальной Комедии",25,4d652f39b470a1433a2123fe,"{'tipCount': 298, 'usersCount': 15181, 'checkinsCount': 28980}",Arts & Entertainment
2605,улица Итальянская 13,39,,30.333107,59.936296,10333313,"Джекилл&amp;Хайд",25,570a7726498e4c3d4918daa3,"{'tipCount': 3, 'usersCount': 21, 'checkinsCount': 48}",Arts & Entertainment
2607,улица Итальянская 17,54,,30.334293,59.936133,9875558,Cinema Grand Palace,25,52de59c0498ebdb3905bf7f0,"{'tipCount': 53, 'usersCount': 2071, 'checkinsCount': 5248}",Arts & Entertainment
2612,"Садовая ул., 11, Центр художника Михаила Шемякина",37,11677520,30.335451,59.935651,4583148,ЦЕНТР МИХАИЛА ШЕМЯКИНА,25,4db9750f1e7206c23d1d4b68,"{'tipCount': 1, 'usersCount': 448, 'checkinsCount': 628}",Arts & Entertainment
2614,улица Итальянская 19,20,,30.334948,59.93607,5844921,Большой концертный зал Филармонии,25,4cacb6555a1e9521f5cc8ece,"{'tipCount': 116, 'usersCount': 13170, 'checkinsCount': 29757}",Arts & Entertainment
2621,улица Итальянская 13,14,,30.333107,59.936296,18328661,Санкт-Петербургский государственный театр музыкальной комедии,25,4d652f39b470a1433a2123fe,"{'tipCount': 298, 'usersCount': 15181, 'checkinsCount': 28980}",Arts & Entertainment
2649,"Инженерная ул., д.4/1",308,10646692,30.334337,59.937955,4445498,Российский этнографический музей,25,4d357e88c6cba35d9cbc3c7a,"{'tipCount': 60, 'usersCount': 6031, 'checkinsCount': 8124}",Arts & Entertainment
3012,Невский проспект 56,410,,30.338074,59.934199,7207628,Театр комедии им. Н.П. Акимова,25,51827fe6e4b0ea1bac66bf35,"{'tipCount': 111, 'usersCount': 6459, 'checkinsCount': 8398}",Arts & Entertainment
3030,невский проспект 54,16,,30.336889,59.934366,9643018,фотосалон Карла Буллы,25,4de67d8e45dda52a060ea193,"{'tipCount': 28, 'usersCount': 950, 'checkinsCount': 1229}",Arts & Entertainment
3043,"Итальянская, 25",46,,30.337293,59.9358,5934248,Музей гигиены,25,4dd82a1445ddced8209a0fe0,"{'tipCount': 26, 'usersCount': 1411, 'checkinsCount': 1608}",Arts & Entertainment
3071,улица Садовая 10,11,,30.336449,59.936751,16458084,Михайловский театр оперы и балета,25,51b02fe2498e841330d91a7e,"{'tipCount': 0, 'usersCount': 10, 'checkinsCount': 46}",Arts & Entertainment
3075,Караванная ул. 12,116,,30.342162,59.936251,11327,Родина,25,4c543b22728920a1d7686782,"{'tipCount': 148, 'usersCount': 12582, 'checkinsCount': 25246}",Arts & Entertainment
5921,"пр. Испытателей, 37",150,,30.264538,60.007092,7027242,XXXX на Комендантском,39,5123af24e4b02b2ac168665f,"{'tipCount': 0, 'usersCount': 7, 'checkinsCount': 9}",Arts & Entertainment
161,улица Писарева 20,825,,30.286763,59.925182,5516774,Концертный зал Мариинского театра,42,4c179f11368220a1aba33657,"{'tipCount': 209, 'usersCount': 12834, 'checkinsCount': 28444}",Arts & Entertainment
163,улица Декабристов 37,276,,30.289413,59.925236,10421617,Концертный зал Мариинского театра. ул. Декабристов,42,4c179f11368220a1aba33657,"{'tipCount': 209, 'usersCount': 12834, 'checkinsCount': 28444}",Arts & Entertainment
166,улица Декабристов 37,37,,30.289413,59.925236,8343892,"Государственный Академический Мариинский театр, Концертный зал",42,4c179f11368220a1aba33657,"{'tipCount': 209, 'usersCount': 12834, 'checkinsCount': 28444}",Arts & Entertainment
293,"улица Декабристов, 34",1742,,30.293805,59.925678,7365774,"Мариинский Театр, Новая Сцена",42,4fe1f329e4b0f778920c0c1c,"{'tipCount': 520, 'usersCount': 29533, 'checkinsCount': 72526}",Arts & Entertainment
295,улица Декабристов 34,981,,30.293805,59.925678,13196810,Мариинский–2 (Новая сцена),42,4fe1f329e4b0f778920c0c1c,"{'tipCount': 520, 'usersCount': 29533, 'checkinsCount': 72526}",Arts & Entertainment
299,"Театральная площадь, 1",488,,30.29624,59.925728,15698944,Мариинский театр.,42,4bbf4b39b083a5939c23a3e9,"{'tipCount': 496, 'usersCount': 34694, 'checkinsCount': 71445}",Arts & Entertainment
303,"Театральная пл., 1",950,,30.29624,59.925728,13746826,"Мариинский театр, г. Санкт-Петербург",42,4bbf4b39b083a5939c23a3e9,"{'tipCount': 496, 'usersCount': 34694, 'checkinsCount': 71445}",Arts & Entertainment
483,Театральная площадь 3,12,,30.297596,59.925863,17030922,Мариинский театр-2,42,4bbf4b39b083a5939c23a3e9,"{'tipCount': 496, 'usersCount': 34694, 'checkinsCount': 71445}",Arts & Entertainment
537,"Биржевая линия, 12",22,85391537,30.296015,59.943643,10748573,"Кулуар ""Реставрация нравов""",43,54bcd283498ec3ed3dbd731e,"{'tipCount': 14, 'usersCount': 80, 'checkinsCount': 287}",Arts & Entertainment
3008,Невский проспект 62,42,,30.339808,59.933983,16862419,Арт банк,45,57d5913d498ed67afb0e528d,"{'tipCount': 0, 'usersCount': 2, 'checkinsCount': 2}",Arts & Entertainment
3015,Nevskiy prospekt 60,191,,30.33917,59.93406,9056690,Кинотеатр «Аврора» ?,45,4becd9e3d5510f479720cd6c,"{'tipCount': 262, 'usersCount': 17119, 'checkinsCount': 35194}",Arts & Entertainment
3024,Невский пр. 60,117,,30.33917,59.93406,11296,Аврора,45,4becd9e3d5510f479720cd6c,"{'tipCount': 262, 'usersCount': 17119, 'checkinsCount': 35194}",Arts & Entertainment
3048,"Наб.Р. Фонтанки, 21",682,,30.342997,59.934867,14364090,Музей Фаберже,45,528b1a9611d20cbd10276bb2,"{'tipCount': 200, 'usersCount': 10173, 'checkinsCount': 13219}",Arts & Entertainment
3056,"Набережная реки Фонтанки, дом 21",391,,30.342997,59.934867,7182755,Шуваловский Дворец/Музей Фаберже,45,528b1a9611d20cbd10276bb2,"{'tipCount': 200, 'usersCount': 10173, 'checkinsCount': 13219}",Arts & Entertainment
3059,Фонтанки реки набережная 21,347,,30.342997,59.934867,10613246,Faberge museum,45,528b1a9611d20cbd10276bb2,"{'tipCount': 200, 'usersCount': 10173, 'checkinsCount': 13219}",Arts & Entertainment
3074,"Караванная ул.12, Родина",72,49962528,30.342162,59.936251,4739053,Киноцентр Родина,45,4c543b22728920a1d7686782,"{'tipCount': 148, 'usersCount': 12582, 'checkinsCount': 25246}",Arts & Entertainment
3076,улица Караванная 12,32,,30.342162,59.936251,12557485,Кинотеатр Родина,45,4c543b22728920a1d7686782,"{'tipCount': 148, 'usersCount': 12582, 'checkinsCount': 25246}",Arts & Entertainment
3085,Белинского площадь 1,63,,30.341856,59.938049,16111970,Свиное рыло галерея,45,56d46b0bcd10a993884bc2bf,"{'tipCount': 16, 'usersCount': 434, 'checkinsCount': 591}",Arts & Entertainment
3092,"Набережная реки фонтанки, д. 5",46,,30.342458,59.937675,18052550,Галерея Свиное Рыло,45,56d46b0bcd10a993884bc2bf,"{'tipCount': 16, 'usersCount': 434, 'checkinsCount': 591}",Arts & Entertainment
3338,улица Рубинштейна 18,103,,30.345054,59.930354,8322204,Театр европы,45,4cb9bfc0c7228cfa0dff11ce,"{'tipCount': 149, 'usersCount': 8432, 'checkinsCount': 14532}",Arts & Entertainment
3341,улица Рубинштейна 18,116,,30.345054,59.930354,13037318,Малый Драматический Театр - Театр Европы,45,4cb9bfc0c7228cfa0dff11ce,"{'tipCount': 149, 'usersCount': 8432, 'checkinsCount': 14532}",Arts & Entertainment
3363,Владимирский проспект 12,194,,30.348225,59.930056,10791174,Санкт-Петербург театр им.Ленсовета,45,4cab3d1bd971b1f7572829e1,"{'tipCount': 231, 'usersCount': 12950, 'checkinsCount': 23337}",Arts & Entertainment
3364,ул. Рубенштейна 5,69,,30.345171,59.93167,9020316,48 стульев Jazz bar,45,4e6f9cc1d1647b113807c8cf,"{'tipCount': 300, 'usersCount': 8086, 'checkinsCount': 16617}",Arts & Entertainment
3826,улица Маяковского 15,16,,30.355556,59.937914,8879500,Веломастерская театра балета Якобсона,45,4ec566f8f5b9b31840162163,"{'tipCount': 5, 'usersCount': 222, 'checkinsCount': 1492}",Arts & Entertainment
3828,улица Маяковского 15,14,,30.355556,59.937914,7245988,Театр балета Якобсона,45,4ec566f8f5b9b31840162163,"{'tipCount': 5, 'usersCount': 222, 'checkinsCount': 1492}",Arts & Entertainment
3987,Лиговский просп. 53,106,,30.359338,59.929136,237,Fish Fabrique,45,4bbf61a2006dc9b6817bfc3f,"{'tipCount': 95, 'usersCount': 5911, 'checkinsCount': 13253}",Arts & Entertainment
4020,Невский проспект 108,16,,30.357496,59.931774,7334629,Кинотеатр нева,45,4c57d32912f0d13ad5ff07ad,"{'tipCount': 96, 'usersCount': 6252, 'checkinsCount': 10432}",Arts & Entertainment
4039,Невский проспект 100,132,,30.355619,59.932008,7993094,Концертный зал Колизей,45,50955c71e4b0f17ed57ba62a,"{'tipCount': 43, 'usersCount': 4804, 'checkinsCount': 7406}",Arts & Entertainment
4043,Невский пр. 108,56,,30.357496,59.931774,11323,Нева,45,4c57d32912f0d13ad5ff07ad,"{'tipCount': 96, 'usersCount': 6252, 'checkinsCount': 10432}",Arts & Entertainment
4044,Невский пр. 100,271,,30.355619,59.932008,11308,Колизей,45,50955c71e4b0f17ed57ba62a,"{'tipCount': 43, 'usersCount': 4804, 'checkinsCount': 7406}",Arts & Entertainment
4380,Невский 130,32,,30.366856,59.930516,8250182,Невский 130,45,54c14585498e7f0ab696db90,"{'tipCount': 0, 'usersCount': 8, 'checkinsCount': 16}",Arts & Entertainment
4381,Лиговский проспект 8,91,,30.363973,59.93442,6000503,БКЗ,45,4bffe41492a6c928ab3d43e2,"{'tipCount': 191, 'usersCount': 25989, 'checkinsCount': 44052}",Arts & Entertainment
4390,Лиговский проспект 21Б,1143,,30.363173,59.935187,7199889,"БКЗ ""Октябрьский""",45,4bffe41492a6c928ab3d43e2,"{'tipCount': 191, 'usersCount': 25989, 'checkinsCount': 44052}",Arts & Entertainment
4393,Лиговский проспект 6,1031,,30.365087,59.935665,13686623,"БКЗ ""Октябрьский"", Лиговский пр., 6",45,4bffe41492a6c928ab3d43e2,"{'tipCount': 191, 'usersCount': 25989, 'checkinsCount': 44052}",Arts & Entertainment
1117,"Каменноостровский проспект, 42",1023,,30.309903,59.96689,7192798,ДК им Ленсовета,54,4bc203f14cdfc9b6e35e9521,"{'tipCount': 227, 'usersCount': 20789, 'checkinsCount': 34641}",Arts & Entertainment
1123,Каменноостровский проспект 42,186,,30.309903,59.96689,10865528,ДК им.Ленсовета,54,4bc203f14cdfc9b6e35e9521,"{'tipCount': 227, 'usersCount': 20789, 'checkinsCount': 34641}",Arts & Entertainment
4583,ул. Купчинская 1К5,13,,30.379298,59.845397,11297,Детский кинотеатр Чайка,57,4f536506e4b03be363f23fe5,"{'tipCount': 16, 'usersCount': 569, 'checkinsCount': 1384}",Arts & Entertainment
5907,13-я линия 70,229,,30.264745,59.945878,10913233,Территория искусств АРТМУЗА,61,4ea1321a0aaf711180114650,"{'tipCount': 51, 'usersCount': 3142, 'checkinsCount': 6310}",Arts & Entertainment
1309,Приморский проспект 147,102,,30.206435,59.984238,6844637,Питерленд,67,58cc0409ce66aa4acc9184ab,"{'tipCount': 0, 'usersCount': 5, 'checkinsCount': 6}",Arts & Entertainment
4844,Гражданский проспект 41Б,29,,30.398567,60.012246,13397198,Кинотеатр формула кино,72,4f023fa66d86546a3628bc45,"{'tipCount': 140, 'usersCount': 10140, 'checkinsCount': 26470}",Arts & Entertainment
25,ул. Байконурская 14,130,,30.272497,60.002288,11301,КАРО Фильм - Континент на Байконурской,84,4c5c4b2a6ebe2d7fb4a5cf2e,"{'tipCount': 68, 'usersCount': 8358, 'checkinsCount': 18695}",Arts & Entertainment
1785,улица Бронницкая 24,631,,30.3238,59.913992,5631314,Клуб Космонавт,90,4c7e6ffcb33a224b4de3da81,"{'tipCount': 252, 'usersCount': 25401, 'checkinsCount': 49121}",Arts & Entertainment
1787,"Бронницкая ул., 24",874,18794783,30.3238,59.913992,13463192,Клуб Космонавт,90,4c7e6ffcb33a224b4de3da81,"{'tipCount': 252, 'usersCount': 25401, 'checkinsCount': 49121}",Arts & Entertainment
3151,Соляной пер.,53,,30.341308,59.944558,15369649,«Аллея парящих зонтиков»,97,57527cb1498e368995cfd513,"{'tipCount': 12, 'usersCount': 1631, 'checkinsCount': 1947}",Arts & Entertainment
3549,Литейный просп. 14,141,,30.349142,59.94495,6761,Олимпия,97,5495b5aa498e4f438d5d8ca9,"{'tipCount': 9, 'usersCount': 1101, 'checkinsCount': 2634}",Arts & Entertainment
4151,"ул. Восстания, 46/19",169,,30.360478,59.943431,9829134,"Таврический сад, Спб",97,4f08063ee4b0cc066bcba265,"{'tipCount': 7, 'usersCount': 308, 'checkinsCount': 525}",Arts & Entertainment
4180,"Воскресенская набережная, д.14",94,71864626,30.362545,59.949456,8602619,Музей кофе / Coffee Museum,97,4deb642752b11677f05428fa,"{'tipCount': 103, 'usersCount': 2240, 'checkinsCount': 3250}",Arts & Entertainment
4418,улица Фурштатская 44,12,,30.362329,59.945373,10461050,Чаплин клуб,97,4ddce869fa766a6d79464368,"{'tipCount': 13, 'usersCount': 816, 'checkinsCount': 2275}",Arts & Entertainment
5396,Пятилеток проспект 1,1440,,30.46789,59.921534,9884468,Ледовый дворец Санкт-Петербург,105,4c88f88910523704c3b7c4f1,"{'tipCount': 209, 'usersCount': 54408, 'checkinsCount': 144977}",Arts & Entertainment
5398,Пятилеток проспект 1,510,,30.46789,59.921534,14212600,Ледовый дворец С-Петербург,105,4c88f88910523704c3b7c4f1,"{'tipCount': 209, 'usersCount': 54408, 'checkinsCount': 144977}",Arts & Entertainment
5400,"Пятилеток проспект, д. 1, Ледовый Дворец",589,61023043,30.46789,59.921534,6896529,Ледовый дворец † New Arena,105,4c88f88910523704c3b7c4f1,"{'tipCount': 209, 'usersCount': 54408, 'checkinsCount': 144977}",Arts & Entertainment
5402,Пятилеток проспект 1,44,,30.46789,59.921534,14341354,Ледовый дорец??,105,4c88f88910523704c3b7c4f1,"{'tipCount': 209, 'usersCount': 54408, 'checkinsCount': 144977}",Arts & Entertainment
5526,пр. Большевиков 18К2,213,,30.48353,59.908737,11304,КАРО Фильм на Дыбенко,112,4d4d9781b1fa236a283d9029,"{'tipCount': 89, 'usersCount': 7600, 'checkinsCount': 17965}",Arts & Entertainment
5455,Индустриальный пр. 24,167,,30.473981,59.946175,11295,Mori Cinema,118,4c5e8caa2815c92899efb767,"{'tipCount': 107, 'usersCount': 9748, 'checkinsCount': 30241}",Arts & Entertainment
1624,Александровский парк 4/3,440,,30.314619,59.955872,6459971,Великан парк,120,52049481498e20b05b1daba8,"{'tipCount': 439, 'usersCount': 24815, 'checkinsCount': 78503}",Arts & Entertainment
2117,"ул. Куйбышева, д. 2-4",125,,30.325067,59.954588,6954661,Музей Политической Истории России,120,4d5a26a5f8ff236ac604d34a,"{'tipCount': 104, 'usersCount': 4048, 'checkinsCount': 6161}",Arts & Entertainment
1365,Московский проспект 107,93,,30.31877,59.890564,7606677,Площадка Скороход,123,509e78aae4b064bf6c9a31c6,"{'tipCount': 36, 'usersCount': 4017, 'checkinsCount': 6419}",Arts & Entertainment
3567,улица Комиссара Смирнова 15,907,,30.348324,59.96303,5859774,ДК Выборгский,127,4c0cdf86b1b676b01ea4df86,"{'tipCount': 258, 'usersCount': 17479, 'checkinsCount': 30824}",Arts & Entertainment
3568,ул.Комиссара Смирнова 15,314,,30.348324,59.96303,14442005,"ДК ""Выборгский""",127,4c0cdf86b1b676b01ea4df86,"{'tipCount': 258, 'usersCount': 17479, 'checkinsCount': 30824}",Arts & Entertainment
3572,улица Комиссара Смирнова 15,11,,30.348324,59.96303,18867898,Дк выборгский санкт-петербург,127,4c0cdf86b1b676b01ea4df86,"{'tipCount': 258, 'usersCount': 17479, 'checkinsCount': 30824}",Arts & Entertainment
575,Большой проспект П.С 35,210,,30.301971,59.959287,11319,Мираж Синема,132,4bb8e0671261d13a110ce998,"{'tipCount': 302, 'usersCount': 27154, 'checkinsCount': 98819}",Arts & Entertainment
1137,Большой ПС проспект 75,23,,30.313002,59.965993,12290506,Русская антреприза им. А. Миронова,132,4e722dc1b99345fbe8640631,"{'tipCount': 73, 'usersCount': 3363, 'checkinsCount': 4499}",Arts & Entertainment
1625,"Александровский парк, 4/3, Великан Парк",37,26790322,30.314619,59.955872,8238112,Кинотеатр Великан Парк,132,52049481498e20b05b1daba8,"{'tipCount': 439, 'usersCount': 24815, 'checkinsCount': 78503}",Arts & Entertainment
1656,улица Льва Толстого д.9,112,,30.31567,59.965124,10292721,Лицедеи,132,4cf53d767e0da1cd565ea697,"{'tipCount': 22, 'usersCount': 2077, 'checkinsCount': 3385}",Arts & Entertainment
1657,улица Льва Толстого 9,105,,30.31567,59.965124,6924896,ЛабиринтУм,132,4d286a4c6e27a1431eaf1924,"{'tipCount': 52, 'usersCount': 2783, 'checkinsCount': 3737}",Arts & Entertainment
2992,Фонтанки реки набережная 52,19,,30.341048,59.930201,6050771,Толстовский дом,136,4f646278e4b04b24438556e1,"{'tipCount': 11, 'usersCount': 678, 'checkinsCount': 962}",Arts & Entertainment
3342,Владимирский проспект 13,550,,30.347291,59.929777,6665622,театр имени Ленсовета,136,4cab3d1bd971b1f7572829e1,"{'tipCount': 231, 'usersCount': 12950, 'checkinsCount': 23337}",Arts & Entertainment
3736,Невский пр. 67,235,,30.353795,59.931666,11330,Художественный,136,4bd4557e77b29c74dc679282,"{'tipCount': 466, 'usersCount': 45116, 'checkinsCount': 131464}",Arts & Entertainment
3746,Невский проспект 67,170,,30.353795,59.931666,9182953,"Кинотеатр ""Художественный""",136,4bd4557e77b29c74dc679282,"{'tipCount': 466, 'usersCount': 45116, 'checkinsCount': 131464}",Arts & Entertainment
554,улица Большая Пушкарская 10,48,,30.297246,59.95512,15269098,Большая пушкарская 10,137,523b2dd411d246a0729cf240,"{'tipCount': 0, 'usersCount': 50, 'checkinsCount': 156}",Arts & Entertainment
5865,Ленинский проспект 124,11,,30.261852,59.852294,6942779,Дом принцессы?,147,57115ed4498ec7bc62a04bd1,"{'tipCount': 0, 'usersCount': 1, 'checkinsCount': 2}",Arts & Entertainment
5366,Проспект Обуховской обороны 223,75,,30.466048,59.864015,7395737,Культурный центр Троицкий,149,4de245f4c65b7a3e2115e24a,"{'tipCount': 27, 'usersCount': 2823, 'checkinsCount': 6087}",Arts & Entertainment
1473,"ул. Ефимова, 2",301,,30.320845,59.926499,5634524,Киноцентр «Пик»,150,4c15c828b7b9c928c67fad37,"{'tipCount': 285, 'usersCount': 30702, 'checkinsCount': 74723}",Arts & Entertainment
1900,Невский проспект 17,182,,30.320845,59.935746,181531,Строгановский дворец,150,4cf360b78333224b5157158e,"{'tipCount': 39, 'usersCount': 2399, 'checkinsCount': 3028}",Arts & Entertainment
1936,улица Большая Конюшенная 27,166,,30.322147,59.937107,9960715,Театр эстрады им. Аркадия Райкина,150,4eb5436b29c212fb6c4f9d91,"{'tipCount': 117, 'usersCount': 7332, 'checkinsCount': 11621}",Arts & Entertainment
1988,Nevskiy prospekt 30,242,,30.327861,59.935498,7022668,Малый зал филармонии,150,4d121650f898b1f7233cd681,"{'tipCount': 55, 'usersCount': 4954, 'checkinsCount': 8442}",Arts & Entertainment
1996,"Конюшенная Б. ул., 27",521,35967221,30.322147,59.937107,1789366,Театр Эстрады им. Аркадия Райкина,150,4eb5436b29c212fb6c4f9d91,"{'tipCount': 117, 'usersCount': 7332, 'checkinsCount': 11621}",Arts & Entertainment
2016,"Дворцовая пл., 6-10",1009,,30.318006,59.938703,5958935,"Главный Штаб, Эрмитаж",150,4dd4d95dfa7645a53ca1cde2,"{'tipCount': 223, 'usersCount': 17957, 'checkinsCount': 33447}",Arts & Entertainment
2358,улица Михайловская 1,694,,30.330574,59.935949,5527748,"Филармония им. Шостаковича, Большой зал",150,4cacb6555a1e9521f5cc8ece,"{'tipCount': 116, 'usersCount': 13170, 'checkinsCount': 29757}",Arts & Entertainment
2362,улица Итальянская 11,456,,30.332514,59.936363,6143998,Театр Музкомедии,150,4c95c9b403413704d71d7fef,"{'tipCount': 329, 'usersCount': 17225, 'checkinsCount': 40966}",Arts & Entertainment
2563,Островского площадь 3,497,,30.335577,59.933104,7385022,Александрийский театр,150,4cfa77d434c1a0931e5e400e,"{'tipCount': 256, 'usersCount': 17933, 'checkinsCount': 31874}",Arts & Entertainment
2588,"Итальянская, 13",211,,30.333107,59.936296,15963482,Театр музыкальной комедии,150,4d652f39b470a1433a2123fe,"{'tipCount': 298, 'usersCount': 15181, 'checkinsCount': 28980}",Arts & Entertainment
2611,улица Итальянская 19,351,,30.334948,59.93607,8832005,Театр имени В.Ф. Комиссаржевской,150,4bd30736046076b09bf87471,"{'tipCount': 117, 'usersCount': 8431, 'checkinsCount': 11911}",Arts & Entertainment
2669,пл. Искусств 3,1007,,30.329298,59.937549,5596587,Михайловский театр,150,4c95c9b403413704d71d7fef,"{'tipCount': 329, 'usersCount': 17225, 'checkinsCount': 40966}",Arts & Entertainment
3084,улица Караванная 1,12,,30.341272,59.937427,18196239,Tessart,150,58dbf0ae0aac75611c7efa97,"{'tipCount': 1, 'usersCount': 97, 'checkinsCount': 103}",Arts & Entertainment
167,ул.Декабристов 37,54,,30.289413,59.925236,15616100,"Мариинский Театр, Концертный зал",151,4c179f11368220a1aba33657,"{'tipCount': 209, 'usersCount': 12834, 'checkinsCount': 28444}",Arts & Entertainment
185,"Английская набережная,44",14,,30.289431,59.93277,10151365,Особняк Н.П. Румянцева,151,4d6a34e41b63a1cdbea0492d,"{'tipCount': 21, 'usersCount': 1501, 'checkinsCount': 1964}",Arts & Entertainment
300,Театральная площадь 1,392,,30.29624,59.925728,9119207,"Царская ложа,Мариинский театр",151,51861765498ed380b75ea22d,"{'tipCount': 1, 'usersCount': 46, 'checkinsCount': 53}",Arts & Entertainment
301,Театральная площадь 1,152,,30.29624,59.925728,16709126,Mariinsky Theater,151,4bbf4b39b083a5939c23a3e9,"{'tipCount': 496, 'usersCount': 34694, 'checkinsCount': 71445}",Arts & Entertainment
302,"ул. Декабристов, 27",85,,30.295467,59.926584,9060100,mariinsky theater II,151,4bbf4b39b083a5939c23a3e9,"{'tipCount': 496, 'usersCount': 34694, 'checkinsCount': 71445}",Arts & Entertainment
314,улица Труда 5,74,,30.293716,59.929993,7195727,Военно-морской,151,4e21a56a483b041af1eebcb0,"{'tipCount': 74, 'usersCount': 3531, 'checkinsCount': 4295}",Arts & Entertainment
315,улица Труда 5,69,,30.293716,59.929993,13711994,Санкт-петербург Центральный военно-морской музей,151,4e21a56a483b041af1eebcb0,"{'tipCount': 74, 'usersCount': 3531, 'checkinsCount': 4295}",Arts & Entertainment
322,улица Галерная 33,151,,30.292665,59.932951,6604074,Театр «Санктъ-Петербургъ Опера»,151,4d84bdae5ad3a093d79fd5fd,"{'tipCount': 44, 'usersCount': 2234, 'checkinsCount': 4287}",Arts & Entertainment
472,Крюкова Канала набережная 25,12,,30.299438,59.919387,5949365,"Крюкова канала набережная, 25",151,507d2511e4b04eb88c896ae3,"{'tipCount': 0, 'usersCount': 80, 'checkinsCount': 105}",Arts & Entertainment
702,"Почтамтская улица, 14",110,,30.301127,59.931688,7138800,Государственный музей истории религии,151,4bebfc526295c9b6ce4c8808,"{'tipCount': 87, 'usersCount': 3436, 'checkinsCount': 4774}",Arts & Entertainment
2519,"Загородный просп., 33",12,,30.334418,59.923207,11706528,бородинская 15,0,59b255f52a7ab606987201c0,"{'tipCount': 0, 'usersCount': 2, 'checkinsCount': 2}",College & University
2536,улица Ломоносова 14,12,,30.338173,59.927847,5786547,Ломоносова дом 9,0,532d977e498e0f24d542398f,"{'tipCount': 0, 'usersCount': 8, 'checkinsCount': 15}",College & University
2552,"ул.Зодчего Росси 2, Академия Русского Балета им. А.Я.Вагановой",53,88341055,30.336071,59.930534,11108764,Академия Русского Балета им.А.Я.Вагановой 3/7 В,0,4df8703988778675b5488717,"{'tipCount': 3, 'usersCount': 862, 'checkinsCount': 6271}",College & University
2554,Зодчего Росси 2,15,,30.336071,59.930534,7389074,Академия Вагановой,0,4df8703988778675b5488717,"{'tipCount': 3, 'usersCount': 862, 'checkinsCount': 6271}",College & University
2910,Pravdy ulitsa 13,12,,30.339826,59.922197,15372956,СПбГИКиТ,0,555c8890498e8bc2506a1580,"{'tipCount': 0, 'usersCount': 3, 'checkinsCount': 6}",College & University
3073,улица Инженерная 7,124,,30.337356,59.937328,6291231,Академия Estel,0,51c93924498e0066fea9bfd8,"{'tipCount': 15, 'usersCount': 705, 'checkinsCount': 3492}",College & University
3129,улица Моховая 35,43,,30.344749,59.940614,9505573,СПбГАТИ,0,50641704e4b053bfe45a6f58,"{'tipCount': 1, 'usersCount': 11, 'checkinsCount': 34}",College & University
3131,"Моховая ул., д.35",182,11845,30.344749,59.940614,2824585,"Учебный театр ""На Моховой""",0,4dd7c159b0fb8af3808d4f4c,"{'tipCount': 53, 'usersCount': 3586, 'checkinsCount': 5654}",College & University
3150,улица Моховая 31,18,,30.344848,59.940898,5595391,Театр на Моховой,0,4dd7c159b0fb8af3808d4f4c,"{'tipCount': 53, 'usersCount': 3586, 'checkinsCount': 5654}",College & University
3322,"улица Марата,27",25,,30.352609,59.927491,12786804,"СПбГЭУ,ИНЖЭКОН,факультет менеджмента",0,4ff1787be4b0ccc7763737d8,"{'tipCount': 1, 'usersCount': 79, 'checkinsCount': 491}",College & University
2118,"Кронверкский просп., 7",22,,30.323917,59.955196,9087274,"Учебный центр ""Базис""",13,4db3e66a93a017099dce21c3,"{'tipCount': 6, 'usersCount': 329, 'checkinsCount': 2070}",College & University
2686,Петроградская набережная 2,42,,30.336188,59.955683,6334257,Нахимовское училище,13,4ec7924349010f98cc99b64c,"{'tipCount': 3, 'usersCount': 728, 'checkinsCount': 1417}",College & University
5976,18-я линия 3,12,,30.27141,59.932247,17542365,Мастерская Н.А. Феоктистова,14,58348e40bf1a6d5c41b5791e,"{'tipCount': 0, 'usersCount': 4, 'checkinsCount': 6}",College & University
6062,Финляндский переулок,49,,30.272884,59.93277,12995347,БИЭПП Мастерская Н.А.Феоктистова,14,58348e40bf1a6d5c41b5791e,"{'tipCount': 0, 'usersCount': 4, 'checkinsCount': 6}",College & University
2721,улица Кантемировская 16,86,,30.336206,59.984715,5800434,Факультет клинической психологии,18,4f5db172e4b01f8f4df3bef3,"{'tipCount': 6, 'usersCount': 181, 'checkinsCount': 2412}",College & University
1546,улица Большая Морская 11–16,41,,30.316704,59.935777,8315533,Университет технологии и дизайна большая морская ул.,25,4fb252f0e4b0968bdd1169bb,"{'tipCount': 0, 'usersCount': 65, 'checkinsCount': 72}",College & University
1569,Невский проспект 14,81,,30.316263,59.936805,8461177,Ресторан Москва,25,5121d2fae4b0a1ec8a1ff6f0,"{'tipCount': 0, 'usersCount': 4, 'checkinsCount': 9}",College & University
1892,Мойки реки набережная 48,85,,30.319955,59.934502,12321043,РГПУ им. А. И. Герцена,25,4d2901cefb8e594147a04e54,"{'tipCount': 80, 'usersCount': 5999, 'checkinsCount': 58676}",College & University
2112,Милионная  ул. 7,24,,30.325705,59.944521,9957438,СПбГИК,25,507d4c2be4b08d57509e9d00,"{'tipCount': 3, 'usersCount': 70, 'checkinsCount': 348}",College & University
2244,улица Гороховая 57,13,,30.325786,59.925791,8016710,ЛОККиИ,25,5080f791e4b0ac00f48e1669,"{'tipCount': 0, 'usersCount': 18, 'checkinsCount': 58}",College & University
2309,Невский проспект 31,77,,30.329037,59.93474,6404902,СПБГЭУ(финэк),25,5084db08e4b052212fa3b99e,"{'tipCount': 0, 'usersCount': 2, 'checkinsCount': 2}",College & University
2416,Дворцовая набережная 2,27,,30.330618,59.946329,15503521,Санкт-Петербургский государственный институт культуры,25,4c8e0d5ca8de224b73c72301,"{'tipCount': 55, 'usersCount': 4593, 'checkinsCount': 29940}",College & University
2417,Дворцовая набережная 4,22,,30.330618,59.946329,17011201,Санкт петербург СПбГИК,25,4c8e0d5ca8de224b73c72301,"{'tipCount': 55, 'usersCount': 4593, 'checkinsCount': 29940}",College & University
2418,Дворцовая набережная 4,11,,30.330618,59.946329,13079917,Санкт-Институт культуры,25,4c8e0d5ca8de224b73c72301,"{'tipCount': 55, 'usersCount': 4593, 'checkinsCount': 29940}",College & University
1539,улица Морская Большая 18,95,,30.316048,59.93484,5893441,СПбГУТД,25,4f4f4dcae4b0cc5f145df7fd,"{'tipCount': 2, 'usersCount': 225, 'checkinsCount': 771}",College & University
132,улица Швецова 22,27,,30.287149,59.897244,6651161,"Петровский колледж,Швецова 22",37,50497b96e4b0a9ffde0e7346,"{'tipCount': 4, 'usersCount': 572, 'checkinsCount': 7440}",College & University
133,"Балтийская,35",43,,30.286826,59.898656,6970828,"Петровский колледж,1 корпус",37,4dd0f507b0fb25f6e37f7335,"{'tipCount': 32, 'usersCount': 1402, 'checkinsCount': 20455}",College & University
5739,Косая линия 15,10,,30.254576,59.925516,8403368,Государственная Морская Академия им. Адмирала С. О. Макарова,58,506d57d0e4b0979dc1db6497,"{'tipCount': 10, 'usersCount': 741, 'checkinsCount': 16340}",College & University
5806,Косая линия 15А,12,,30.254576,59.925516,5602558,Гма им макарова,58,50a0da35e4b01718b3f155da,"{'tipCount': 0, 'usersCount': 17, 'checkinsCount': 114}",College & University
3198,улица Литовская 2А,70,,30.340051,59.977917,5393499,Санкт-Петербургский Государственный Педиатрический университет,64,4dbf87f96e8124d25db8c3e2,"{'tipCount': 37, 'usersCount': 3475, 'checkinsCount': 25787}",College & University
3199,улица Литовская 2,32,,30.340051,59.977917,16181917,"Литовская 2, СПбГПМУ",64,53296a30498ece52f9ea8b20,"{'tipCount': 2, 'usersCount': 47, 'checkinsCount': 88}",College & University
4598,улица Фучика 15,84,,30.377466,59.879344,7440875,Университет профсоюзов,66,4ca070a60e9bb1f7f762f85f,"{'tipCount': 22, 'usersCount': 2794, 'checkinsCount': 29991}",College & University
4599,улица Фучика 15,24,,30.377466,59.879344,11968505,Saint-Petersburg University of Humanities and Social Sciences,66,4ca070a60e9bb1f7f762f85f,"{'tipCount': 22, 'usersCount': 2794, 'checkinsCount': 29991}",College & University
4212,улица Бухарестская 22,54,,30.364674,59.887905,5707104,СПБГУКиТ,66,,,College & University
5027,ул. софийская 52,68,,30.418303,59.866052,6921943,Российская таможенная академия им.В.Б.Бобкова,83,4e9e5abb77c80ac54bd5c351,"{'tipCount': 30, 'usersCount': 1919, 'checkinsCount': 33507}",College & University
4430,улица Чайковского 62,35,,30.367072,59.946576,8744157,Экономический факультет,97,4bcc20273740b7137e876365,"{'tipCount': 34, 'usersCount': 2314, 'checkinsCount': 40325}",College & University
4826,улица Смольного 3,132,,30.396941,59.950578,5942404,Факультет международных отношений СПБГУ,119,4e5f32f345dd21543f5f0668,"{'tipCount': 30, 'usersCount': 1819, 'checkinsCount': 35112}",College & University
1364,Московский пр. 103А,27,,30.317844,59.891624,5671820,СПбГЭУ,123,4e896dc902d5e70d03857c55,"{'tipCount': 5, 'usersCount': 217, 'checkinsCount': 682}",College & University
1776,"Черниговская улица, 5",15,,30.323791,59.894112,18234994,"Санкт-Петербург, СПбГАВМ",123,,,College & University
898,Московский проспект 149В,61,,30.316191,59.873704,6516613,СПБ УГПС МЧС РОССИИ,129,5717311a498e6d05d4c20e9b,"{'tipCount': 0, 'usersCount': 4, 'checkinsCount': 17}",College & University
1349,Московский проспект 149,12,,30.319192,59.874756,12179936,СПБ УГПС МЧС РФ,129,4eb7857d5c5c5a5320e75110,"{'tipCount': 19, 'usersCount': 1513, 'checkinsCount': 17812}",College & University
606,Vyazemskiy pereulok 5,12,,30.30198,59.972366,13113912,ITMO,132,4c9ce6719975a143578f36cf,"{'tipCount': 20, 'usersCount': 1127, 'checkinsCount': 13579}",College & University
607,"Вяземский пер., д.5/7",19,,30.30198,59.972366,7009675,Студенческий городок НИУ ИТМО,132,4c9ce6719975a143578f36cf,"{'tipCount': 20, 'usersCount': 1127, 'checkinsCount': 13579}",College & University
2130,улица Льва Толстого 19,76,,30.321348,59.964273,6255263,Больница НИИ Первый мед,132,53b2c07a498ec433eea4e120,"{'tipCount': 0, 'usersCount': 19, 'checkinsCount': 20}",College & University
2133,улица Льва Толстого 6,82,,30.32186,59.965309,8796411,ПСПбГМУ им. акад. И.П. Павлова,132,4c7f32e9d51ea143251b5a9f,"{'tipCount': 41, 'usersCount': 7406, 'checkinsCount': 40589}",College & University
128,Ул. Пилотов 38,64,,30.290751,59.818703,11179686,Санкт-Петербургский Государственный Университет Гражданской Авиации,140,4c0f1ac0c6cf76b06ae58151,"{'tipCount': 40, 'usersCount': 2224, 'checkinsCount': 34937}",College & University
442,улица Пилотов 21,27,,30.298252,59.813256,8382745,СПБГУГА,140,,,College & University
3933,улица Днепропетровская 10,20,,30.360227,59.91277,6680056,РАНХиГС(СЗАГС),146,507e5173e4b0959d8bd74d55,"{'tipCount': 0, 'usersCount': 44, 'checkinsCount': 143}",College & University
3934,"Санкт-Петербург, ул. Днепропетровская, д. 8, ФЭиФ СЗИУ РАНХиГС",17,80334803,30.360604,59.914601,10112923,Факультет экономики и финансов СЗИУ РАНХиГС,146,5044d87ee4b0f30043120777,"{'tipCount': 18, 'usersCount': 1826, 'checkinsCount': 32920}",College & University
3935,Обводного Канала набережная 45,12,,30.360604,59.914601,13183777,РАНХиГС,146,507e5173e4b0959d8bd74d55,"{'tipCount': 0, 'usersCount': 44, 'checkinsCount': 143}",College & University
3936,"Ул. Днепропетровская, д. 8, СЗИУ РАНХиГС",19,57117266,30.360604,59.914601,6193548,"СЗИУ РАНХиГС, Экономическая безопасность",146,5044d87ee4b0f30043120777,"{'tipCount': 18, 'usersCount': 1826, 'checkinsCount': 32920}",College & University
170,улица Декабристов 35,19,,30.29023,59.925421,11116051,Санкт-Петербург Декабристов 35. нгу им. П.Ф.Лесгафта,151,4e6b09647d8b143eb76130a1,"{'tipCount': 5, 'usersCount': 706, 'checkinsCount': 1928}",College & University
484,Театральная площадь 3,240,,30.297596,59.925863,5783416,Санкт-Петербургская государственная консерватория им. Н.А. Римского-Корсакова,151,4cd181a01ac7a1cd997b1f92,"{'tipCount': 57, 'usersCount': 5301, 'checkinsCount': 21208}",College & University
2252,Фонтанки реки набережная 59,71,,30.332271,59.927757,8403971,Вкус есть,0,53021f8e498e17cec0d43921,"{'tipCount': 170, 'usersCount': 3006, 'checkinsCount': 4940}",Food
2523,Загородный просп. 27,32,,30.33697,59.924199,8356,Тройка,0,4c9b73fdeaa5a1436cf9d4e4,"{'tipCount': 41, 'usersCount': 1074, 'checkinsCount': 1853}",Food
2668,М.Садовая 6,12,,30.337994,59.934835,6385,Сладкоежка,0,4cc5aee538aaa093f9391a62,"{'tipCount': 67, 'usersCount': 1720, 'checkinsCount': 2685}",Food
2670,улица Инженерная 7,37,,30.337356,59.937328,10732742,"Jack &amp; Chan",0,51839fe8498e416da2ac7ae5,"{'tipCount': 852, 'usersCount': 14169, 'checkinsCount': 35408}",Food
2923,Загородный просп. 13,20,,30.341326,59.925917,8771,Шинок,0,4c93a11c82b56dcb0284c7aa,"{'tipCount': 46, 'usersCount': 1379, 'checkinsCount': 2087}",Food
2924,улица Разъезжая 1,44,,30.342638,59.925872,15817232,Ресторан Жаровня,0,5714ebca498e637e0f76f2ba,"{'tipCount': 54, 'usersCount': 1376, 'checkinsCount': 1928}",Food
2937,улица Ломоносова 16,22,,30.338847,59.927626,5372242,Ресторан Sanam,0,4e6663bd52b1260c14cbf27b,"{'tipCount': 49, 'usersCount': 1162, 'checkinsCount': 2988}",Food
2940,улица Рубинштейна 40,39,,30.3428,59.926729,18206108,"BURGER&amp;CRAB",0,591f4262012358512f4e0b64,"{'tipCount': 62, 'usersCount': 1172, 'checkinsCount': 1560}",Food
2945,Рубинштейна 25,130,,30.342728,59.927464,3229,Tres Amigos,0,4c713c81344437041641265f,"{'tipCount': 227, 'usersCount': 6085, 'checkinsCount': 10453}",Food
2984,Рубинштейна ул. 13,25,70740629,30.343878,59.929434,8411917,"Гранд-кафе ""Чайный дом""",0,4bd974bc0f7cd13a9e677c9f,"{'tipCount': 389, 'usersCount': 13333, 'checkinsCount': 28462}",Food
2986,улица Рубинштейна 15,14,,30.34359,59.928952,16715536,Счастья на рубинштейна,0,4bdc3fdf3904a59397574d9e,"{'tipCount': 643, 'usersCount': 19530, 'checkinsCount': 38603}",Food
2994,наб. реки Фонтанки 50,37,,30.342,59.930746,1740,Palermo,0,4e6227e9b0fb188e8d8f5c30,"{'tipCount': 37, 'usersCount': 1090, 'checkinsCount': 1590}",Food
3001,"ул. Рубинштейна, 9",16,,30.344399,59.930354,15344725,punk,0,55faa025498e2f3eb97ce195,"{'tipCount': 228, 'usersCount': 7763, 'checkinsCount': 14087}",Food
3007,"Невский просп., 62",57,,30.339808,59.933983,12368847,"gastropub Иван &amp; Марья",0,55a4e584498e1d7b3df2c69c,"{'tipCount': 41, 'usersCount': 1273, 'checkinsCount': 1668}",Food
3032,Невский просп. 60,14,,30.33917,59.93406,7444,Япоша,0,4c35b6e86f1fef3b8d2aed3d,"{'tipCount': 89, 'usersCount': 2665, 'checkinsCount': 3995}",Food
3035,"Караванная ул., 7",22,,30.340967,59.934659,8773660,"кабачок ""Одесса-Мама""",0,4cd178a86200b1f73e0ada28,"{'tipCount': 118, 'usersCount': 1945, 'checkinsCount': 3267}",Food
3044,улица Караванная 22,12,,30.341524,59.934664,6014770,Caffe Centrale,0,4e2aa320b0fbc2edac189d5e,"{'tipCount': 361, 'usersCount': 6440, 'checkinsCount': 17895}",Food
3045,Караванная 26,20,,30.341416,59.934308,498,Трибунал-бар,0,4e7476abb0fb968032bd1534,"{'tipCount': 41, 'usersCount': 1116, 'checkinsCount': 1946}",Food
3052,"Реки Фонтанки наб., 25, Пельмения",28,35096702,30.342907,59.934483,1624793,"""Пельмения"" - сеть ресторанов.",0,4ef9e12102d5abdcbd775e62,"{'tipCount': 274, 'usersCount': 4762, 'checkinsCount': 8152}",Food
3064,улица Караванная 3/35,13,,30.340886,59.935236,5626600,"кальян-бар ""Магриб""",0,5165518ae4b0f799b8b96b53,"{'tipCount': 62, 'usersCount': 1562, 'checkinsCount': 2219}",Food
3100,наб. реки Фонтанки 9,10,,30.342692,59.93708,6078,Арагви,0,4ced5d63f368b1f7fe857af7,"{'tipCount': 36, 'usersCount': 964, 'checkinsCount': 1997}",Food
3105,"улица Белинского, дом 5",279,,30.345818,59.938072,11316724,Пряности и Радости на Белинского,0,54a3bf40498e8bfa137e0156,"{'tipCount': 130, 'usersCount': 6974, 'checkinsCount': 15147}",Food
3109,улица Моховая 48,25,,30.3458,59.938586,9352847,"Кондитерская ""Бизе""",0,4e10a9b61f6e671dd9e0b25e,"{'tipCount': 232, 'usersCount': 4564, 'checkinsCount': 10716}",Food
3111,улица Белинского 5,27,,30.345818,59.938072,17286862,"«Пряности &amp; Радости»на Белинского",0,54a3bf40498e8bfa137e0156,"{'tipCount': 130, 'usersCount': 6974, 'checkinsCount': 15147}",Food
3126,Фонтанки реки набережная 20,24,,30.341174,59.940668,16504357,Сахинеле kazbegi,0,5784e5a538fa06b8a3b42741,"{'tipCount': 48, 'usersCount': 1844, 'checkinsCount': 3917}",Food
3280,"Санкт-Петербург, Достоевского 19/21 М",26,,30.346483,59.923338,18220764,Madlabbar,0,5970d7fa851de565cc266a87,"{'tipCount': 7, 'usersCount': 138, 'checkinsCount': 227}",Food
3281,"Достоевского, 19/21",22,,30.347354,59.92378,19067437,Ресторан Симпозиум,0,58556a2ce309e14af15d7e90,"{'tipCount': 5, 'usersCount': 102, 'checkinsCount': 158}",Food
3284,Разъезжая 13,14,,30.34562,59.924659,4718,Швейцарская кондитерская «Буше»,0,4ca611c2f47ea1439ade5c21,"{'tipCount': 124, 'usersCount': 3116, 'checkinsCount': 6137}",Food
3285,Разъезжая 13,14,,30.34562,59.924659,2264,Буше,0,4ca611c2f47ea1439ade5c21,"{'tipCount': 124, 'usersCount': 3116, 'checkinsCount': 6137}",Food
3299,"Большая Московская ул., 9",15,,30.346285,59.925962,12408492,64 зерна кофейня,0,55410364498e9b06b137957a,"{'tipCount': 21, 'usersCount': 456, 'checkinsCount': 626}",Food
3318,достоевского 6,10,,30.350345,59.926332,7281804,Арагоста,0,5021217fe4b0d6074d5bbbe6,"{'tipCount': 16, 'usersCount': 612, 'checkinsCount': 1442}",Food
3320,Кузнечный переулок 6,19,,30.35048,59.927662,14844215,Ресто бар Ra Family,0,561bb564498e07b11e425d33,"{'tipCount': 45, 'usersCount': 594, 'checkinsCount': 1277}",Food
3324,Rubinshteyna ulitsa 20,33,,30.344893,59.930065,18939929,Duo Asia,0,599275c312c8f07eae1e582f,"{'tipCount': 92, 'usersCount': 1417, 'checkinsCount': 2023}",Food
3355,Владимирский проспект 9,42,,30.346932,59.930705,51897,Golden Garden,0,4e605c73d4c06542aa09cb5f,"{'tipCount': 1, 'usersCount': 92, 'checkinsCount': 135}",Food
3388,улица Рубинштейна 1,11,,30.34562,59.932504,11228190,City Gril,0,53ef44ff498e9da93061350f,"{'tipCount': 186, 'usersCount': 4922, 'checkinsCount': 9382}",Food
3412,наб. реки Фонтанки 40,51,,30.344623,59.933708,7543,Рубаи,0,4d615b0e1939a35d675a2cee,"{'tipCount': 73, 'usersCount': 2404, 'checkinsCount': 4048}",Food
3417,Невский проспект 47,12,,30.347273,59.932522,13666498,Restaurant Palkin,0,4bd7dd72dc4b95210b0d7888,"{'tipCount': 97, 'usersCount': 5467, 'checkinsCount': 9541}",Food
3418,Невский проспект 76,26,,30.347336,59.933023,8566290,Coffe shop company,0,57458e57498ed05329b865a4,"{'tipCount': 0, 'usersCount': 9, 'checkinsCount': 13}",Food
3419,Невский проспект 74,13,,30.347336,59.933023,14241795,Тан-Жен Невский 74,0,56b1f118498e658327828b80,"{'tipCount': 14, 'usersCount': 852, 'checkinsCount': 1232}",Food
3430,"Невский проспект, 47",15,,30.347273,59.932522,14812188,Брассерия Kriek,0,55269e46498ebdf7c9a86da1,"{'tipCount': 71, 'usersCount': 2836, 'checkinsCount': 3873}",Food
3432,"Невский проспект, д. 53",34,,30.349636,59.932184,6838822,Las Torres ?,0,4eac08aa0aafb00bd934e163,"{'tipCount': 128, 'usersCount': 3248, 'checkinsCount': 6370}",Food
3440,Невский проспект 84-86,53,,30.350498,59.932644,6827472,Дом актера,0,4d694c48c16554811113ea81,"{'tipCount': 30, 'usersCount': 602, 'checkinsCount': 801}",Food
3463,Фонтанки реки набережная 17,67,,30.343141,59.935858,5869910,Кофе на кухне,0,508973afe4b0b106721cc859,"{'tipCount': 607, 'usersCount': 10540, 'checkinsCount': 31458}",Food
3499,улица Белинского 8,10,,30.347318,59.938432,16034695,"Бар, которого нет.",0,57a38547498e0024ba4116c8,"{'tipCount': 18, 'usersCount': 379, 'checkinsCount': 602}",Food
3500,улица Белинского 13,15,,30.347597,59.938112,9426349,Rudy's Coffee to Go,0,538493ea498e5da6509017a4,"{'tipCount': 253, 'usersCount': 2502, 'checkinsCount': 10936}",Food
3502,улица Моховая 41,11,,30.344776,59.939388,7779079,Прекрасная зелёная,0,4e22ef15c65b2b5e3555d1f3,"{'tipCount': 199, 'usersCount': 2198, 'checkinsCount': 4516}",Food
3504,Литейный просп. 36,68,,30.348764,59.939424,9890,Корчма «Сало»,0,4ca885dad971b1f7712415e1,"{'tipCount': 155, 'usersCount': 3378, 'checkinsCount': 5328}",Food
3648,"Коломенская ул. 29, Philibert",137,40782832,30.352717,59.923045,4662547,романтичное кафе Philibert,0,4fa3ee73e4b0752c68405ba7,"{'tipCount': 284, 'usersCount': 4570, 'checkinsCount': 9929}",Food
3677,Лиговский просп. 93,31,,30.355466,59.923315,9909,Евразия,0,4dd0284f8877851244224711,"{'tipCount': 66, 'usersCount': 2885, 'checkinsCount': 3833}",Food
3685,Лиговский 64,21,,30.356086,59.922869,8371163,Prime Studio,0,59297d226a595012a666923b,"{'tipCount': 3, 'usersCount': 30, 'checkinsCount': 37}",Food
3699,улица Марата 23,75,,30.352861,59.927892,5562625,Укроп,0,50558b60e4b0e932c935a0de,"{'tipCount': 486, 'usersCount': 8521, 'checkinsCount': 20443}",Food
3700,"Марата ул., 23",165,41443023,30.352861,59.927892,3180679,Кафе УКРОП,0,50558b60e4b0e932c935a0de,"{'tipCount': 486, 'usersCount': 8521, 'checkinsCount': 20443}",Food
3709,"Колокольная., ул 18",20,,30.352663,59.92855,8891641,Бар Корейко.,0,4cbb207c0180721e62bd9d61,"{'tipCount': 157, 'usersCount': 2849, 'checkinsCount': 9354}",Food
3742,улица Марата 3,90,,30.354684,59.930859,5643541,Jager haus,0,59fb124b6f0aa23a20520609,"{'tipCount': 4, 'usersCount': 117, 'checkinsCount': 143}",Food
3751,Стремянная 22К3,10,,30.354181,59.930791,6084,Кэт,0,4cd67abd89eb6dcb9cb62f1e,"{'tipCount': 68, 'usersCount': 908, 'checkinsCount': 1371}",Food
3772,"Невский просп., 86",13,,30.350498,59.932644,14825719,"Мама на даче, Невский 88",0,54deff9f498ed36be493d704,"{'tipCount': 61, 'usersCount': 1723, 'checkinsCount': 2376}",Food
3781,Невский проспект 88,12,,30.351801,59.932464,14789251,"Мама на даче, Невский проспект",0,54deff9f498ed36be493d704,"{'tipCount': 61, 'usersCount': 1723, 'checkinsCount': 2376}",Food
3819,"ул. Жуковского, 43",22,,30.358026,59.935687,10615002,"кафе ""Бизе""",0,4c002de3efa2ef3b3440aa8c,"{'tipCount': 160, 'usersCount': 3598, 'checkinsCount': 6660}",Food
3832,Маяковского 34,72,,30.354972,59.939947,8345,Питер,0,4d6d31b440fc8eec2f8ea3ba,"{'tipCount': 88, 'usersCount': 1749, 'checkinsCount': 5202}",Food
3970,Лиговский проспект 44,19,,30.358915,59.92617,6367885,Кофешоп на лиговском,0,4d301657f986a0935132f966,"{'tipCount': 29, 'usersCount': 684, 'checkinsCount': 964}",Food
3982,Лиговский проспект 57,13,,30.35887,59.928438,19282542,Кофейня#1,0,595bce5f8e886a485cca65c6,"{'tipCount': 13, 'usersCount': 292, 'checkinsCount': 437}",Food
3984,Лиговский проспект 30,19,,30.360451,59.927504,18084062,Meat line,0,572de33e498ef8b4aad5112b,"{'tipCount': 29, 'usersCount': 456, 'checkinsCount': 565}",Food
4019,"Невский пр., 106",33,,30.356912,59.931846,8335209,Суши-бар ТАКАО,0,4c1bb8b663750f47035ab567,"{'tipCount': 572, 'usersCount': 23886, 'checkinsCount': 53445}",Food
4032,"Невский, 106",73,6716525,30.356912,59.931846,5026047,ТАКАО,0,4c1bb8b663750f47035ab567,"{'tipCount': 572, 'usersCount': 23886, 'checkinsCount': 53445}",Food
4034,"Невский проспект, д.104",41,,30.356589,59.931882,8739320,Кондитерская Север  Метрополь,0,50d60125e4b05909f96d7a6c,"{'tipCount': 158, 'usersCount': 4607, 'checkinsCount': 5796}",Food
4083,"переулок Ульяны Громовой, 4",13,,30.361224,59.934393,15806676,ozland bar,0,554ccce3498e2dcf8fdd93ba,"{'tipCount': 49, 'usersCount': 1556, 'checkinsCount': 4480}",Food
4084,Лиговский проспект 27/7,44,,30.362356,59.933924,5450419,ЧайникоФФ,0,4cd42f5d558a370459d9c5a6,"{'tipCount': 76, 'usersCount': 3344, 'checkinsCount': 9666}",Food
4085,Жуковского 28,30,,30.359472,59.936043,5010,Soiree,0,4cb078cccbab236afd79a073,"{'tipCount': 94, 'usersCount': 2291, 'checkinsCount': 6377}",Food
4087,ул.  Восстания д. 17,16,56657778,30.360577,59.934961,6103581,Potrefena Husa / Подстреленная Гусыня - пивница,0,4c6e59adc52437048fa92aeb,"{'tipCount': 171, 'usersCount': 2474, 'checkinsCount': 3909}",Food
4110,улица Некрасова 26,19,,30.357092,59.938987,6775441,Irish yoga bar,0,510aa673e4b09ee060e7dcf1,"{'tipCount': 108, 'usersCount': 1920, 'checkinsCount': 4339}",Food
4115,улица Восстания 22,29,,30.360065,59.938076,14343709,Веселидзе,0,55925014498efce9c3a303d6,"{'tipCount': 123, 'usersCount': 857, 'checkinsCount': 1919}",Food
4116,"ул. Некрасова, 34",11,,30.358987,59.938933,9989938,Сеновал трактир,0,53998d1a498e723ddb144b1f,"{'tipCount': 135, 'usersCount': 3306, 'checkinsCount': 9854}",Food
4119,улица Восстания 26,41,,30.360173,59.939126,16845224,United butchers,0,57b6d791498eab22c97439f5,"{'tipCount': 81, 'usersCount': 1749, 'checkinsCount': 3264}",Food
4122,Улица Некрасова 34,10,,30.358987,59.938933,18823708,Mapuche,0,5952353946e1b634a0cbcb64,"{'tipCount': 21, 'usersCount': 281, 'checkinsCount': 359}",Food
4219,Лиговский проспект 30 лит А,31,,30.360451,59.927504,17721182,"Галерея, ресторан ""Большая кухня""",0,53f2d292498e6a513a816daa,"{'tipCount': 537, 'usersCount': 17901, 'checkinsCount': 35988}",Food
4223,"лиговский пр. 30, Галерея",10,35594533,30.360451,59.927504,1722958,T.G.I. Friday's,0,4d29f4f9467d6ea86604d495,"{'tipCount': 599, 'usersCount': 16821, 'checkinsCount': 32200}",Food
4351,Восстания площадь,43,,30.361458,59.931102,7978627,Столовая номер один,0,4faae9d6e4b02cf91fb50c36,"{'tipCount': 122, 'usersCount': 4098, 'checkinsCount': 6419}",Food
4354,Невский просп. 93,10,,30.365958,59.93025,8510,Теремок,0,4c3c0f8e4bc9a5936b35d271,"{'tipCount': 62, 'usersCount': 2027, 'checkinsCount': 3926}",Food
4356,"Невский проспект, 126",11,,30.365527,59.930908,7570109,Irish pub KERRY,0,4cd9900c7bb06dcb0ff8a8b2,"{'tipCount': 57, 'usersCount': 2013, 'checkinsCount': 3723}",Food
4367,"1-я Советская улица, 14",11,,30.365096,59.931062,18495420,SB burgers  Невский 126,0,564e4b0b498e73a00664bd53,"{'tipCount': 144, 'usersCount': 2010, 'checkinsCount': 3078}",Food
4373,"Невский, 128",29,,30.366443,59.930669,14338202,Отмороженое,0,56323182498ec9ad0120492f,"{'tipCount': 53, 'usersCount': 1329, 'checkinsCount': 1594}",Food
4399,Жуковского 36,10,,30.362572,59.935962,9904,Евразия,0,4d0b8fa7d823b1f73227ea5c,"{'tipCount': 56, 'usersCount': 1823, 'checkinsCount': 2461}",Food
4493,Невский проспект 111,18,,30.37062,59.928686,5353091,Harat's,0,4ffeff5ae4b026d5cbc67bb0,"{'tipCount': 163, 'usersCount': 4400, 'checkinsCount': 10764}",Food
4494,"Невский просп., 146",16,,30.370854,59.929078,6754021,"Harats, Irish pub",0,4ffeff5ae4b026d5cbc67bb0,"{'tipCount': 163, 'usersCount': 4400, 'checkinsCount': 10764}",Food
4496,Невский проспект 109,13,,30.369632,59.929024,7984126,Harats,0,4ffeff5ae4b026d5cbc67bb0,"{'tipCount': 163, 'usersCount': 4400, 'checkinsCount': 10764}",Food
4506,улица Конная 6,64,,30.374869,59.929303,5787394,Бакунина 5 кафе Италия,0,51a4f101498e838219e2ed6a,"{'tipCount': 2, 'usersCount': 29, 'checkinsCount': 39}",Food
4513,Бакунина проспект 5/2,15,,30.374995,59.929799,5499836,Caffe Italia,0,4bba3d7153649c7498cc48fb,"{'tipCount': 1303, 'usersCount': 22761, 'checkinsCount': 68156}",Food
4527,Суворовский просп. 15,13,,30.371222,59.934858,9260,Мисо,0,4cdfec13f8cdb1f7b7709412,"{'tipCount': 164, 'usersCount': 2477, 'checkinsCount': 7306}",Food
4622,Мытнинская 12,15,,30.376433,59.932991,5305,Китай-город,0,4ca8ab0ca6e08cfa5d4e9194,"{'tipCount': 79, 'usersCount': 1620, 'checkinsCount': 4804}",Food
4626,Дегтярный переулок 2,52,,30.378103,59.938175,17432202,Чечил,0,579752ba498ef58e8faa0b0c,"{'tipCount': 48, 'usersCount': 1025, 'checkinsCount': 1904}",Food
4629,Суворовский просп. 47,77,,30.377924,59.939708,9491,Francesco,0,4bf178ed684ca59341d0e0b3,"{'tipCount': 190, 'usersCount': 5301, 'checkinsCount': 14680}",Food
4630,"Суворовский пр. 47, Francesco",61,35063129,30.377924,59.939708,2282666,Ресторан Francesco,0,4bf178ed684ca59341d0e0b3,"{'tipCount': 190, 'usersCount': 5301, 'checkinsCount': 14680}",Food
4632,Суворовский проспект 47,11,,30.377924,59.939708,8306547,Кондитерская Гарсон (Patisserie Garson),0,4c5afcc4b1aa9c74a98f0c49,"{'tipCount': 79, 'usersCount': 2091, 'checkinsCount': 5407}",Food
4688,Невский просп. 176,77,,30.38096,59.925696,9300,Амроц,0,4ce79f2dae8e5941d6c10f4c,"{'tipCount': 26, 'usersCount': 1768, 'checkinsCount': 2196}",Food
4702,Заячий переулок 4к3,15,,30.380187,59.939884,7424031,Ресторан le mare?,0,4c35eee77cc0c9b6c5b3f59a,"{'tipCount': 74, 'usersCount': 1513, 'checkinsCount': 3759}",Food
1267,"проспект Ветеранов, 105",45,,30.201809,59.83357,15457442,Такао?,8,4f5b4513e4b04fe10da1558d,"{'tipCount': 197, 'usersCount': 5862, 'checkinsCount': 19908}",Food
1299,Ветеранов проспект 101,18,,30.204836,59.834135,7780080,Евразия Ульянка,8,4e6c5fc2a80957ae44b79c0c,"{'tipCount': 29, 'usersCount': 1026, 'checkinsCount': 1678}",Food
5875,улица Краснопутиловская 11,20,,30.263667,59.872123,17107534,Краснопутиловская дом 15 банкетный зал 21 век,17,5874d340fad9dc155c39f78b,"{'tipCount': 0, 'usersCount': 0, 'checkinsCount': 0}",Food
5752,Савушкина 98,296,,30.254513,59.983878,2447,Bali,22,4defa364fa76c1ceac970ec1,"{'tipCount': 159, 'usersCount': 6184, 'checkinsCount': 11659}",Food
703,Мойки реки набережная 97,16,,30.304963,59.931107,10998988,Особняк половцева,25,4e8daee5b8f71a700b3931f1,"{'tipCount': 12, 'usersCount': 317, 'checkinsCount': 367}",Food
708,"Почтамтская ул.5, Мансарда",794,18584335,30.303561,59.932775,2282675,Ресторан «Мансарда»,25,4cfa5206feec6dcb480c3f36,"{'tipCount': 608, 'usersCount': 19821, 'checkinsCount': 40047}",Food
961,наб. реки Мойки 64,95,,30.311538,59.931846,5204,Shatush,25,4da74dfc93a04785b913035b,"{'tipCount': 136, 'usersCount': 3321, 'checkinsCount': 7831}",Food
975,улица Малая Морская 24,97,,30.309113,59.934064,8441427,"Кафе ""Счастье""",25,4ffe8107e4b0f1ba287fefd7,"{'tipCount': 971, 'usersCount': 27089, 'checkinsCount': 47149}",Food
976,наб. Мойки 62/2,24,55402476,30.312787,59.932085,6314007,Oh! Mumbai / индийская кухня,25,51c1f46b498e2febc333aa4f,"{'tipCount': 549, 'usersCount': 5540, 'checkinsCount': 11616}",Food
977,улица Морская Малая 24,701,,30.309113,59.934064,5358208,Счастье,25,4ffe8107e4b0f1ba287fefd7,"{'tipCount': 971, 'usersCount': 27089, 'checkinsCount': 47149}",Food
979,Вознесенский 1,66,,30.307963,59.935029,7143061,Percorso,25,51f62f0c498e63b5ac78ad19,"{'tipCount': 66, 'usersCount': 1370, 'checkinsCount': 2490}",Food
980,улица Малая Морская 24,25,,30.309113,59.934064,12004370,"Реторан ""Счастье""",25,4ffe8107e4b0f1ba287fefd7,"{'tipCount': 971, 'usersCount': 27089, 'checkinsCount': 47149}",Food
984,Малая морская 24 Санкт петербург,14,,30.309113,59.934064,12450521,"Ресторан ""Счастье""",25,4ffe8107e4b0f1ba287fefd7,"{'tipCount': 971, 'usersCount': 27089, 'checkinsCount': 47149}",Food
988,Мойки реки набережная 60,23,,30.313317,59.932175,10358515,Ресторан Oh! Mumbai,25,51c1f46b498e2febc333aa4f,"{'tipCount': 549, 'usersCount': 5540, 'checkinsCount': 11616}",Food
990,Гривцова переулок 4,10,,30.313119,59.931513,16396212,WCorner Restaurant,25,57ed1001498e345390c74357,"{'tipCount': 3, 'usersCount': 99, 'checkinsCount': 137}",Food
997,Вознесенский проспект 6,205,,30.308798,59.934921,16006755,Restaurant CoCoCo,25,56b26342498ee890da0ac9d1,"{'tipCount': 201, 'usersCount': 3815, 'checkinsCount': 5267}",Food
1000,Вознесенский проспект 6,29,,30.308798,59.934921,9525402,Вознесенский проспект 6,25,5224a8a111d283dd74d2399e,"{'tipCount': 0, 'usersCount': 5, 'checkinsCount': 5}",Food
1009,"СПб, ул. Большая Морская, д. 31",17,,30.311529,59.933704,18882696,Токио-sity,25,57fd1227498e82ac5cf519d5,"{'tipCount': 38, 'usersCount': 1942, 'checkinsCount': 3914}",Food
1012,"улица Малая Морская,14",12,,30.311233,59.934731,13652887,ToNYs Bar,25,51939626498e41e9c7f8943e,"{'tipCount': 95, 'usersCount': 2597, 'checkinsCount': 4347}",Food
1018,Вознесенский просп. 4,11,,30.308897,59.935227,1957,Tandoori Nights,25,4d57cf1b36d1721e6451efb1,"{'tipCount': 47, 'usersCount': 546, 'checkinsCount': 697}",Food
1019,улица Гороховая 11,63,,30.312814,59.934425,11796624,Счастье на Исаакиевском,25,4ffe8107e4b0f1ba287fefd7,"{'tipCount': 971, 'usersCount': 27089, 'checkinsCount': 47149}",Food
1026,"Адмиралтейский проспект,8",31,,30.309804,59.936075,5811296,Оливье ресторан,25,4f9146d7e4b0c93d7f2c98cc,"{'tipCount': 5, 'usersCount': 138, 'checkinsCount': 285}",Food
1029,Адмиралтейский проспект 8,42,,30.309804,59.936075,7816441,Ресторан Горохов,25,4f9146d7e4b0c93d7f2c98cc,"{'tipCount': 5, 'usersCount': 138, 'checkinsCount': 285}",Food
1031,улица Гороховая 2,49,,30.310838,59.936273,7089040,Sicafe,25,4ff87d37e4b08a4c731c9753,"{'tipCount': 401, 'usersCount': 5561, 'checkinsCount': 12741}",Food
1050,Невский просп. 7К9,188,,30.31426,59.936607,6987,Кофе Хауз,25,4ca8ce7014c3370460d9d73b,"{'tipCount': 172, 'usersCount': 13401, 'checkinsCount': 22125}",Food
1454,Канал Грибоедова 69,16,,30.313946,59.926336,17587409,Рим караоке,25,546f27fe498e5de660e15e67,"{'tipCount': 43, 'usersCount': 439, 'checkinsCount': 1608}",Food
1458,Канала Грибоедова набережная 54,51,,30.315841,59.926981,13448650,Charlie,25,566b0ef8498eefc06159eed3,"{'tipCount': 99, 'usersCount': 1768, 'checkinsCount': 2588}",Food
1459,Сенная площадь 13,98,,30.316111,59.926882,5377746,Хачу харчо,25,4e6de0c362e1ce648721b9b7,"{'tipCount': 726, 'usersCount': 26121, 'checkinsCount': 73597}",Food
1472,улица Ефимова 2,815,,30.320845,59.926499,10484319,Ресторан Barashki,25,542d31d1498edb99d0b5697d,"{'tipCount': 283, 'usersCount': 10247, 'checkinsCount': 23883}",Food
1480,улица Ефимова 2,29,,30.320845,59.926499,6336337,"Ресторан ""Небо""",25,585d2d118cb34e76236d4835,"{'tipCount': 0, 'usersCount': 0, 'checkinsCount': 0}",Food
1489,"ул. Гривцова, д.20",20,,30.316254,59.928347,10348625,#BuuzaRoom,25,5481d21f498ed8dc22811923,"{'tipCount': 90, 'usersCount': 1424, 'checkinsCount': 2413}",Food
1491,ул. Казанская 34,11,,30.314,59.929502,8831,Pizza Ollis,25,5a384ac1e57ca6472879a7d5,"{'tipCount': 0, 'usersCount': 1, 'checkinsCount': 1}",Food
1493,Спасский переулок 11,28,,30.318752,59.928163,15978743,Gianni ресторан,25,5198872f498eaf74bc45586c,"{'tipCount': 55, 'usersCount': 661, 'checkinsCount': 3181}",Food
1499,"Казанская улица, 17",155,,30.318877,59.931143,16231276,"Mickey &amp; Monkeys, гороховая 27",25,5586d2a3498edb8f0d49e1f2,"{'tipCount': 541, 'usersCount': 12170, 'checkinsCount': 22679}",Food
1500,"Гороховая улица, 27",542,,30.3185,59.930624,12553119,"Mickey &amp; Monkeys",25,5586d2a3498edb8f0d49e1f2,"{'tipCount': 541, 'usersCount': 12170, 'checkinsCount': 22679}",Food
1508,улица Гороховая 24/ Набережная канала Грибоедова 47,83,,30.3193,59.930773,6027731,I'm thankful for today,25,51a347a4498e40839468752e,"{'tipCount': 644, 'usersCount': 11554, 'checkinsCount': 24168}",Food
1510,Канала Грибоедова набережная 45–47,33,,30.320009,59.93099,6464632,I am thankful for today,25,51a347a4498e40839468752e,"{'tipCount': 644, 'usersCount': 11554, 'checkinsCount': 24168}",Food
1513,Гороховая 26К40,54,,30.319875,59.93016,8177,Киликия,25,4c8525d4d4e23704daee7f88,"{'tipCount': 163, 'usersCount': 3924, 'checkinsCount': 10318}",Food
1530,Гороховая 16,72,,30.314826,59.933577,8455,Pizza Hut,25,4c30bc0f09a99c74d0220b2a,"{'tipCount': 244, 'usersCount': 10096, 'checkinsCount': 19339}",Food
1534,"Большая Морская, 19, 12 Комнат",83,46657563,30.314637,59.934795,4200380,Антикафе 12 Комнат,25,50cb214ce4b0981efbd660ae,"{'tipCount': 169, 'usersCount': 5518, 'checkinsCount': 10785}",Food
1544,улица Большая Морская 16,34,,30.317009,59.935295,11773978,Bonch cafe,25,53bff3b6498e502089967978,"{'tipCount': 380, 'usersCount': 6068, 'checkinsCount': 12618}",Food
1548,Б.Морская 11К6,98,,30.316704,59.935777,4647,McDonald`s,25,4c42cf7ba48d9c74aef80c40,"{'tipCount': 215, 'usersCount': 24355, 'checkinsCount': 48052}",Food
1553,Кирпичный переулок 3,15,,30.315697,59.935457,17179579,Кофейня 1,25,5814e29538fa732967692fba,"{'tipCount': 37, 'usersCount': 1215, 'checkinsCount': 1918}",Food
1554,М.Морская 7,92,,30.31347,59.936066,3669,Буше,25,4bb593bb941ad13af0641ee3,"{'tipCount': 372, 'usersCount': 11546, 'checkinsCount': 22966}",Food
1555,Малая Морская д.6,19,52170046,30.314143,59.935836,5095183,Trattoria Stefano,25,4d2b431ef7a9224bd6370ea0,"{'tipCount': 246, 'usersCount': 3727, 'checkinsCount': 7857}",Food
1556,Малая Морская 9,27,,30.313074,59.935944,12437930,Ярумэн,25,55ab74fe498e61368524b7af,"{'tipCount': 144, 'usersCount': 1906, 'checkinsCount': 3347}",Food
1557,улица Морская Малая 11,24,,30.312697,59.935809,6680062,Ресторан Гоголь,25,4d445f5dbf61a1cd871408ac,"{'tipCount': 47, 'usersCount': 1143, 'checkinsCount': 1535}",Food
1566,"Невский проспект, 11",24,,30.31603,59.936404,7287573,Any Pasta,25,5017ef0fe4b0f6f74ee5930f,"{'tipCount': 1411, 'usersCount': 9447, 'checkinsCount': 17814}",Food
1573,Nevskiy prospekt 16,262,,30.316263,59.936805,9989092,Nevsky Prospect,25,53326abb498e79e651615d54,"{'tipCount': 0, 'usersCount': 9, 'checkinsCount': 13}",Food
1574,"Невский просп., 11",11,,30.31603,59.936404,8844838,невский 11 any pasta,25,5017ef0fe4b0f6f74ee5930f,"{'tipCount': 1411, 'usersCount': 9447, 'checkinsCount': 17814}",Food
1582,Невский просп. 18,156,,30.318249,59.936557,4719,Шоколадница,25,4bd96e842e6f0f47c7810a08,"{'tipCount': 222, 'usersCount': 9195, 'checkinsCount': 13510}",Food
1583,Moyki reki naberezhnaya 59,38,,30.318563,59.935764,8894496,MANIFESTA 10,25,53ae9734498e1d3791ebfb51,"{'tipCount': 1, 'usersCount': 7, 'checkinsCount': 8}",Food
1592,Мойки реки набережная 59,20,,30.318563,59.935764,7627383,Невский 20 кафе Дачники,25,4df9d6d918381da9362ac0f9,"{'tipCount': 331, 'usersCount': 5136, 'checkinsCount': 8859}",Food
1597,Невский просп. 20,11,,30.321114,59.936246,3193,Subway,25,4bbb101ccf2fc9b6ef20a202,"{'tipCount': 242, 'usersCount': 13776, 'checkinsCount': 27162}",Food
1805,улица Ефимова 2,17,,30.320845,59.926499,6065432,Coffeshop Company,25,4bfbd161bbb7c92877950843,"{'tipCount': 64, 'usersCount': 5243, 'checkinsCount': 11424}",Food
1828,улица Гороховая 43,60,,30.321456,59.928523,12676547,Co-op Garage,25,55c26a3f498e17bece5f47a9,"{'tipCount': 304, 'usersCount': 7501, 'checkinsCount': 15853}",Food
1830,Гороховая 34,81,,30.32151,59.929082,6783,Jager Haus,25,59fb0b5c98fbfc792ea9eed4,"{'tipCount': 3, 'usersCount': 71, 'checkinsCount': 75}",Food
1831,Гороховая 39,55,,30.32053,59.92924,7331,Conchita Bonita,25,4c4817fdd012ef3be5001da0,"{'tipCount': 250, 'usersCount': 4937, 'checkinsCount': 9876}",Food
1832,улица Гороховая 41,30,,30.321177,59.928816,11295081,Chuck,25,54a04075498ecb9bd6e3a51f,"{'tipCount': 367, 'usersCount': 4452, 'checkinsCount': 10097}",Food
1833,улица Гороховая 41,15,,30.321177,59.928816,17066026,Митерия Chuck,25,54a04075498ecb9bd6e3a51f,"{'tipCount': 367, 'usersCount': 4452, 'checkinsCount': 10097}",Food
1845,Канала Грибоедова набережная 36,49,,30.32248,59.931125,17784906,Бар Dizzy,25,57f66e93cd1074478faec61f,"{'tipCount': 17, 'usersCount': 493, 'checkinsCount': 1223}",Food
1848,улица Казанская 22,31,,30.319875,59.931129,10774195,Coffee 22,25,5467af4f498eae1923f2f152,"{'tipCount': 293, 'usersCount': 3694, 'checkinsCount': 7128}",Food
1853,"Казанская ул., 7-9",122,,30.321042,59.932378,9067242,"""Старгород"" ресторан-пивоварня",25,534fb1e8498e7d9b81e64a81,"{'tipCount': 182, 'usersCount': 4524, 'checkinsCount': 10131}",Food
1865,"Казанская ул, 10, Ст. метро Невский пр.",98,43423251,30.322049,59.932509,3523734,Вегетарианское кафе Samadeva,25,508f908fe4b0e142bf0e0535,"{'tipCount': 234, 'usersCount': 3229, 'checkinsCount': 6949}",Food
1873,ул. Казанская 6,31,,30.322605,59.933054,8715,Сулико,25,4d70d6fb4301370438c3fab8,"{'tipCount': 57, 'usersCount': 1309, 'checkinsCount': 2122}",Food
1886,Ул. Казанская д. 2,13,,30.323162,59.933681,16351943,Ресторан Terrassa,25,4bf2d963e5eba593eae01d90,"{'tipCount': 1742, 'usersCount': 27415, 'checkinsCount': 53938}",Food
1909,Невский проспект 20,47,,30.321114,59.936246,6273557,"Кафе ""Библиотека""",25,55166817498e8ea2acd9c006,"{'tipCount': 0, 'usersCount': 1, 'checkinsCount': 1}",Food
1911,Невский проспект 21,13,,30.322084,59.935592,16028941,Библиотека вкусов,25,572fbf3d498eedd42d41e1bd,"{'tipCount': 2, 'usersCount': 45, 'checkinsCount': 46}",Food
1920,Канала Грибоедова набережная 20,56,,30.326756,59.934677,6604817,Кофенная гамма,25,4c62e1907c9def3bb65ad71c,"{'tipCount': 491, 'usersCount': 20801, 'checkinsCount': 54296}",Food
1927,"Большая Конюшенная ул., 31",22,,30.322066,59.936562,6821666,Apteka,25,51fbe7ae498e519f6cd60d3a,"{'tipCount': 180, 'usersCount': 3160, 'checkinsCount': 4414}",Food
1931,улица Конюшенная Большая 14,22,,30.322866,59.936341,6295677,Ohooligans,25,4c210c1f7e85c9280ce4b921,"{'tipCount': 645, 'usersCount': 20531, 'checkinsCount': 46830}",Food
1934,улица Большая Конюшенная 14,32,,30.322866,59.936341,15616304,"O'Hooligans, Irish Pub",25,4c210c1f7e85c9280ce4b921,"{'tipCount': 645, 'usersCount': 20531, 'checkinsCount': 46830}",Food
1935,улица Большая Конюшенная 14,71,,30.322866,59.936341,11617323,O'hooligans конюшенная 14,25,4c210c1f7e85c9280ce4b921,"{'tipCount': 645, 'usersCount': 20531, 'checkinsCount': 46830}",Food
1944,Невский просп 22,16,,30.324097,59.935944,10563,Абхазия,25,4d3af594beb7b1f7719dee71,"{'tipCount': 27, 'usersCount': 315, 'checkinsCount': 359}",Food
1957,улица Малая Конюшенная 16,79,,30.32522,59.93603,7954918,Укроп Лето,25,529055cf11d27f615567f911,"{'tipCount': 272, 'usersCount': 5163, 'checkinsCount': 9254}",Food
1968,Б.Конюшенная 10,23,,30.323639,59.937815,4239,Евразия,25,4ec269a89adfe2b7b74e7af6,"{'tipCount': 180, 'usersCount': 7574, 'checkinsCount': 11055}",Food
1971,наб. канала Грибоедова 19,69,,30.326199,59.936237,5915,Баскин Роббинс,25,4c29c3fded0ac9b6cd3762aa,"{'tipCount': 118, 'usersCount': 6997, 'checkinsCount': 11096}",Food
1981,улица Малая Конюшенная 14,10,,30.325354,59.936327,16544748,Укроп на конюшенной,25,529055cf11d27f615567f911,"{'tipCount': 272, 'usersCount': 5163, 'checkinsCount': 9254}",Food
1987,Невский просп. 30,88,,30.327861,59.935498,3189,Il Patio,25,5acb943e72475061c76ebddb,"{'tipCount': 0, 'usersCount': 16, 'checkinsCount': 16}",Food
1997,Волынский переулок 2,37,,30.321348,59.938473,13546819,"Hamlet&amp;Jack",25,564cbfc9498e126b73def0f2,"{'tipCount': 126, 'usersCount': 2373, 'checkinsCount': 4665}",Food
2027,Б.Конюшенная 19К8,18,,30.323055,59.938631,4978,Чайная хижина,25,50d84eeb29a60e2b0d9e1931,"{'tipCount': 2, 'usersCount': 18, 'checkinsCount': 24}",Food
2028,улица Большая Морская 3,11,,30.317305,59.937296,8145293,Ресторан холст масло,25,4ced3744f368b1f72e9c79f7,"{'tipCount': 49, 'usersCount': 1120, 'checkinsCount': 1710}",Food
2038,"Конюшенная М. ул., 7",68,91464265,30.324699,59.936746,12516331,Surf Coffee St. Petersburg,25,57935204498e3dfd7abca65f,"{'tipCount': 63, 'usersCount': 1219, 'checkinsCount': 3238}",Food
2044,улица Большая Конюшенная 15,11,,30.323135,59.938978,14594797,"KIM &amp; CHI",25,56cb0d24498eb1f82e3ff7af,"{'tipCount': 107, 'usersCount': 1716, 'checkinsCount': 2508}",Food
2046,Мойки реки набережная 22А,17,,30.319991,59.939776,5951732,Bellevue Brasserie,25,4dd3e6b82271d21ebd46941e,"{'tipCount': 56, 'usersCount': 1157, 'checkinsCount': 2756}",Food
2048,М.Конюшенная 4К0,127,,30.326289,59.937941,10599,Mama Roma,25,58f7ac2dd7627e74d5185d38,"{'tipCount': 11, 'usersCount': 497, 'checkinsCount': 667}",Food
2075,улица Конюшенная Большая 5,24,,30.323746,59.940298,5528263,Mollie's Mews,25,4e78d181b993adb6be21b2e7,"{'tipCount': 203, 'usersCount': 8903, 'checkinsCount': 20793}",Food
2092,"Конюшенная пл., 2, Jamies Italian рестораны Джейми Оливера в России",188,49262280,30.326073,59.940154,4623205,Jamie's Italian Russia,25,5165512dd63eb4eca1b8783e,"{'tipCount': 815, 'usersCount': 16265, 'checkinsCount': 27095}",Food
2093,Конюшенная площадь 4,269,,30.326073,59.940154,6199308,Jamie'e italian,25,5165512dd63eb4eca1b8783e,"{'tipCount': 815, 'usersCount': 16265, 'checkinsCount': 27095}",Food
2102,улица Миллионная 10,47,,30.32398,59.943381,12554154,"Ресторан ""Штакеншнайдер""",25,55c77984498e3f3d6595fb76,"{'tipCount': 7, 'usersCount': 357, 'checkinsCount': 551}",Food
2108,"Миллионная ул. 4/1, LEGRAN",75,41302223,30.325354,59.943931,3173407,Ресторан LEGRAN,25,50a27b43e4b070229a17b868,"{'tipCount': 104, 'usersCount': 2057, 'checkinsCount': 3442}",Food
2292,"наб. канала Грибоедова, 26",51,,30.326055,59.933041,8788619,санкт-петербург невская набережная,25,5690d577498edd32c854a267,"{'tipCount': 0, 'usersCount': 21, 'checkinsCount': 29}",Food
2297,улица Думская 5/22,72,,30.328085,59.933393,6252797,Чайный дом,25,4bc73874af07a59335b67e2d,"{'tipCount': 206, 'usersCount': 5730, 'checkinsCount': 11335}",Food
2306,наб. канала Грибоедова 22К5,15,,30.326477,59.933879,9658,Евразия,25,51bef94b498e82ced562bdea,"{'tipCount': 31, 'usersCount': 2083, 'checkinsCount': 2937}",Food
2333,Канала Грибоедова набережная 17,38,,30.326316,59.936453,7744612,Coffee House,25,4df38d45b0fb807158c2a416,"{'tipCount': 410, 'usersCount': 23502, 'checkinsCount': 48336}",Food
2338,"наб. канала Грибоедова, 8/1",43,,30.327636,59.936792,13321135,chacha,25,5613faab498e3e3b25527d68,"{'tipCount': 98, 'usersCount': 1469, 'checkinsCount': 2021}",Food
2350,"Hабережная Канала Грибоедова, 13",12,,30.326369,59.937067,7188584,Пироговый дворик,25,5124ad76e4b0a45732cc588d,"{'tipCount': 1, 'usersCount': 13, 'checkinsCount': 17}",Food
2366,"Михайловская ул., 1",13,,30.330574,59.935949,12983704,Restaurant Azia,25,551111d0498e207bc09f6601,"{'tipCount': 18, 'usersCount': 666, 'checkinsCount': 1683}",Food
2397,Канала Грибоедова набережная 3,27,,30.327915,59.940443,5580058,Meat Head,25,596b6837a6fe4d68f1a7d430,"{'tipCount': 16, 'usersCount': 180, 'checkinsCount': 241}",Food
2406,Марсово поле 7,79,,30.32946,59.942354,2485,Гастроном,25,4b82a3d3f964a520ffdb30e3,"{'tipCount': 438, 'usersCount': 6360, 'checkinsCount': 20668}",Food
2408,Мойки реки набережная 1,43,,30.329145,59.942088,9461841,"Ресторан ""Гастроном""",25,4b82a3d3f964a520ffdb30e3,"{'tipCount': 438, 'usersCount': 6360, 'checkinsCount': 20668}",Food
2573,Невский просп. 44,39,,30.33299,59.934835,2560,Чайная ложка,25,4c5ff05bde6920a128b39464,"{'tipCount': 128, 'usersCount': 4564, 'checkinsCount': 6274}",Food
2577,"Невский пр., 52",68,,30.335775,59.934515,14618110,ресторан Dell Mar,25,55cb389c498e59a4fdc8d1ae,"{'tipCount': 170, 'usersCount': 8875, 'checkinsCount': 21762}",Food
2578,Невский просп. 44,21,,30.33299,59.934835,5077,Cafe d`Or,25,55f6b2ec498edb711eb28dce,"{'tipCount': 5, 'usersCount': 129, 'checkinsCount': 285}",Food
2579,улица Садовая 15,537,,30.335074,59.934898,12858417,Del mar. nevskiy prospekt,25,55cb389c498e59a4fdc8d1ae,"{'tipCount': 170, 'usersCount': 8875, 'checkinsCount': 21762}",Food
2582,Невский пр. 44,16,,30.33299,59.934835,9624246,кафе Север,25,4bdd994caebd2d7f1867af51,"{'tipCount': 299, 'usersCount': 9538, 'checkinsCount': 12917}",Food
2597,"Садовая ул., 12, Ресторан ""Царь""",47,3510192,30.336116,59.935534,2011574,Ресторан «Царь»,25,4c92185e51d9b1f723d28546,"{'tipCount': 83, 'usersCount': 2713, 'checkinsCount': 5230}",Food
2624,"Итальянская ул., 15",13,,30.333646,59.936215,8066631,ресторан luce,25,4ea69bac4fc6b3625bb6ba98,"{'tipCount': 73, 'usersCount': 1659, 'checkinsCount': 2588}",Food
2625,улица Итальянская 15,52,,30.333646,59.936215,5383812,Luce,25,4ea69bac4fc6b3625bb6ba98,"{'tipCount': 73, 'usersCount': 1659, 'checkinsCount': 2588}",Food
2626,Итальянская 17,65,,30.334293,59.936133,7198394,Brasserie Kriek,25,5077e497e4b027cedca657ff,"{'tipCount': 243, 'usersCount': 6444, 'checkinsCount': 11264}",Food
2628,Итальянская 6К4,104,,30.334239,59.93649,6104,Две палочки,25,4ba4e725f964a52009c138e3,"{'tipCount': 370, 'usersCount': 16980, 'checkinsCount': 30644}",Food
2636,Садовая 12К23,59,,30.336116,59.935534,8634,Баку,25,4c029dcc0d0e0f47a75a019a,"{'tipCount': 93, 'usersCount': 3413, 'checkinsCount': 6366}",Food
2637,Садовая 12,76,,30.336116,59.935534,9962,Царь,25,4c92185e51d9b1f723d28546,"{'tipCount': 83, 'usersCount': 2713, 'checkinsCount': 5230}",Food
2652,"Невский, 52",15,,30.335775,59.934515,14162655,Del Mar,25,55cb389c498e59a4fdc8d1ae,"{'tipCount': 170, 'usersCount': 8875, 'checkinsCount': 21762}",Food
3011,Невский просп. 60,39,,30.33917,59.93406,8147,Теремок,25,4c3ad0545810a593deaab93c,"{'tipCount': 119, 'usersCount': 6028, 'checkinsCount': 10053}",Food
3018,Невский 60,47,,30.33917,59.93406,12432799,Токио невский,25,54999259498ef625890d1133,"{'tipCount': 105, 'usersCount': 6869, 'checkinsCount': 14712}",Food
3036,Караванная 3К35,113,,30.340886,59.935236,5153,Mama Roma,25,4c540a9ffd2ea59377ab6d29,"{'tipCount': 229, 'usersCount': 9003, 'checkinsCount': 14171}",Food
3039,улица Малая Садовая 2,15,,30.338227,59.935403,8790730,Ресторан жасмин,25,51c760a7498e89b9a62dcfb2,"{'tipCount': 4, 'usersCount': 50, 'checkinsCount': 58}",Food
3060,улица Итальянская 23/12,91,,30.336404,59.935926,6071984,Ресторан баку,25,4c029dcc0d0e0f47a75a019a,"{'tipCount': 93, 'usersCount': 3413, 'checkinsCount': 6366}",Food
3088,Караванная 2,38,,30.341856,59.937057,6410,Хутор Водограй,25,588b9ff9e309e120706bc298,"{'tipCount': 4, 'usersCount': 65, 'checkinsCount': 67}",Food
3096,Караванная 14,29,,30.341856,59.935976,9069,Тархун,25,4d28c9ba3c79548106a7d19b,"{'tipCount': 101, 'usersCount': 2713, 'checkinsCount': 4722}",Food
5836,Комендантская пл. 4,68,,30.261206,60.006327,4806,McDonald`s,39,4bdadadec79cc928d9f77fe9,"{'tipCount': 146, 'usersCount': 13850, 'checkinsCount': 40897}",Food
5847,Комендантская площадь 1,21,,30.259822,60.007668,5762470,Chili pizza,39,5af2dd35628c83002c493a87,"{'tipCount': 0, 'usersCount': 4, 'checkinsCount': 4}",Food
5850,"Комендантский пр. 13 к1, Бричмула",549,25752080,30.259894,60.008959,2282413,Ресторан «Бричмула» 24 часа,39,4da73a7a93a04785b911584c,"{'tipCount': 1038, 'usersCount': 16731, 'checkinsCount': 47180}",Food
5919,Комендантский проспект 9,654,,30.263164,60.005545,5450581,Ресторан Плюшкин,39,4c5c352a6147be9ae98d8e09,"{'tipCount': 570, 'usersCount': 14646, 'checkinsCount': 50633}",Food
310,Глинки 2,24,,30.296159,59.927473,6446,Teatro,42,5555f646498eba1d9307baff,"{'tipCount': 20, 'usersCount': 499, 'checkinsCount': 595}",Food
527,Университетская наб. 13,80,,30.298243,59.939383,10147,Bellini,42,4c8b9d36770fb60c5a6addc3,"{'tipCount': 24, 'usersCount': 1556, 'checkinsCount': 2538}",Food
4933,Новочеркасский проспект 41/14,35,,30.410757,59.929705,6535196,Papa pizziano,44,4d8b7c62401a224b5336b818,"{'tipCount': 167, 'usersCount': 2445, 'checkinsCount': 5334}",Food
4993,Заневская площадь,10,,30.411907,59.928997,14279385,Розарио васаби,44,4d362f5ecea8b60cfa9016f8,"{'tipCount': 84, 'usersCount': 3088, 'checkinsCount': 6543}",Food
2613,Невский пр. 56/8,59,,30.338074,59.934199,11054057,Елисеевский магазин,45,547d8a2c498e1c402003d14f,"{'tipCount': 0, 'usersCount': 39, 'checkinsCount': 40}",Food
2929,улица Разъезжая 12,10,,30.345791,59.925002,15171656,CrabStory,45,5704ff21498ee13ba6349e07,"{'tipCount': 25, 'usersCount': 458, 'checkinsCount': 653}",Food
2941,"улица Рубинштейна, 27-29",93,,30.342512,59.927202,15487341,Social club,45,5738b72e498e9e5d0afd9689,"{'tipCount': 77, 'usersCount': 2750, 'checkinsCount': 5012}",Food
2950,улица Рубинштейна 36,42,,30.343509,59.927676,6135978,Макарони ресторан)),45,56d423f3cd105fe2c9378803,"{'tipCount': 0, 'usersCount': 20, 'checkinsCount': 22}",Food
2959,улица Рубинштейна 23,16,,30.342979,59.928023,17623137,"Юнга Seafood &amp; bar",45,583d667776b8b273cec91774,"{'tipCount': 42, 'usersCount': 772, 'checkinsCount': 941}",Food
2960,улица Рубинштейна 21,23,,30.343204,59.928253,7615116,Оcuba,45,4c8cf2125e38b1f749a435f9,"{'tipCount': 396, 'usersCount': 8988, 'checkinsCount': 19399}",Food
2966,"ул. Рубинштейна, 36",108,,30.343509,59.927676,9766476,ресторан O!CUBA,45,4c8cf2125e38b1f749a435f9,"{'tipCount': 396, 'usersCount': 8988, 'checkinsCount': 19399}",Food
2975,улица Рубинштейна 28,77,,30.344219,59.92887,5398929,Фартук,45,4d96352597d06ea85897fd0a,"{'tipCount': 736, 'usersCount': 15644, 'checkinsCount': 38446}",Food
3005,Невский пр. 60,41,,30.33917,59.93406,14540532,"Чешская господа ""Карловы пивовары""",45,54e6f48d498ec4fb5fca13a0,"{'tipCount': 33, 'usersCount': 1269, 'checkinsCount': 1575}",Food
3294,Б.Московская 7,65,,30.346689,59.926192,6607,Кашмир,45,4bf66666bfeac928a4379436,"{'tipCount': 162, 'usersCount': 2877, 'checkinsCount': 5194}",Food
3330,улица Рубинштейна 11,28,,30.344165,59.92993,18606031,Smoke BBQ,45,57f73e4d498e4aa72e5bbe60,"{'tipCount': 119, 'usersCount': 2268, 'checkinsCount': 3604}",Food
3345,Владимирский просп. 13К7,28,,30.347291,59.929777,6387,Подстреленная гусыня,45,4da07381bcc4a0936f4010c9,"{'tipCount': 130, 'usersCount': 1601, 'checkinsCount': 2143}",Food
3347,Рубинштейна 24,225,,30.344713,59.929696,1742,Чайный дом,45,4bd974bc0f7cd13a9e677c9f,"{'tipCount': 389, 'usersCount': 13333, 'checkinsCount': 28462}",Food
3351,Владимирский просп. 14,18,,30.348163,59.929786,1763,Евразия,45,4d5fcf38e4fe54815d3f789e,"{'tipCount': 99, 'usersCount': 3516, 'checkinsCount': 5623}",Food
3358,"ул. Рубинштейна, 5-7",108,,30.345171,59.93167,8424937,"""География""",45,5214bb9711d2faa23fce30c4,"{'tipCount': 842, 'usersCount': 13774, 'checkinsCount': 24079}",Food
3361,улица Рубинштейна 5,23,,30.345171,59.93167,10564548,Гирлянда,45,5496d669498ed521a2b6f5c8,"{'tipCount': 47, 'usersCount': 1134, 'checkinsCount': 1935}",Food
3365,Владимирский пр.9,17,126292351,30.346932,59.930705,15806064,"Ресторан ""Ф.М. Достоевский""",45,4c7802a5566db60c2f29400e,"{'tipCount': 15, 'usersCount': 947, 'checkinsCount': 1326}",Food
3367,Владимирский 9,11,,30.346932,59.930705,14952182,Ресторан достоевский,45,4c7802a5566db60c2f29400e,"{'tipCount': 15, 'usersCount': 947, 'checkinsCount': 1326}",Food
3369,Рубинштейна 5,21,,30.345171,59.93167,13391038,География,45,5214bb9711d2faa23fce30c4,"{'tipCount': 842, 'usersCount': 13774, 'checkinsCount': 24079}",Food
3372,Vladimirskiy prospekt 11,12,,30.347381,59.93039,7398155,Quest'? pasta,45,5aa93fa5e2d4aa2767cd99fa,"{'tipCount': 5, 'usersCount': 37, 'checkinsCount': 41}",Food
3383,Рубинштейна 2К45,116,,30.346294,59.932482,7518,McDonald`s,45,4b485945f964a520f94b26e3,"{'tipCount': 185, 'usersCount': 25413, 'checkinsCount': 53784}",Food
3398,ул. Рубинштейна 2,303,,30.346294,59.932482,6008326,Марчеллис,45,4f731453e4b02c6aeef5e732,"{'tipCount': 985, 'usersCount': 29275, 'checkinsCount': 58249}",Food
3400,Невский проспект 43,103,,30.34562,59.932725,14407595,Марчеллис Невский 43,45,4f731453e4b02c6aeef5e732,"{'tipCount': 985, 'usersCount': 29275, 'checkinsCount': 58249}",Food
3405,Невский просп. 47,206,,30.347273,59.932522,3412,Палкин,45,4bd7dd72dc4b95210b0d7888,"{'tipCount': 97, 'usersCount': 5467, 'checkinsCount': 9541}",Food
3407,Невский проспект 47,276,,30.347273,59.932522,6952573,ресторан Палкин,45,4bd7dd72dc4b95210b0d7888,"{'tipCount': 97, 'usersCount': 5467, 'checkinsCount': 9541}",Food
3411,Невский проспект 47,35,,30.347273,59.932522,17883427,Beer family restaurant,45,58d911328ee560562cdd4428,"{'tipCount': 12, 'usersCount': 345, 'checkinsCount': 425}",Food
3421,Невский проспект 74,14,,30.347336,59.933023,13521431,ЧебуRoom,45,565c0cca498edac8bef7b751,"{'tipCount': 92, 'usersCount': 2134, 'checkinsCount': 3231}",Food
3435,Невский проспект 55,76,,30.35022,59.932031,15713195,"Manneken pis Невский,55",45,5790da61cd10d3d9d8401bc7,"{'tipCount': 39, 'usersCount': 1838, 'checkinsCount': 2792}",Food
3439,Невский проспект 55,259,,30.35022,59.932031,6938733,Starbucks Coffe,45,4be5c9992468c9287a8d0043,"{'tipCount': 369, 'usersCount': 21919, 'checkinsCount': 50777}",Food
3511,Литейный проспект 36,125,,30.348764,59.939424,15555269,FX BAR,45,575e0ac3498ec532766f47e8,"{'tipCount': 13, 'usersCount': 496, 'checkinsCount': 1062}",Food
3710,Колокольная 8,19,,30.350462,59.928852,11974721,Georgian's,45,54873e6a498e40c7e25e9c56,"{'tipCount': 56, 'usersCount': 519, 'checkinsCount': 905}",Food
3712,улица Марата 19,27,,30.353445,59.928897,13076179,"Марата 16 ""На парах""",45,55eeb069498ed75c89051262,"{'tipCount': 96, 'usersCount': 2247, 'checkinsCount': 4202}",Food
3713,Марата 11,58,,30.35393,59.929601,1547,Мариус,45,515ccc11e4b0fba2a32cec5e,"{'tipCount': 1, 'usersCount': 19, 'checkinsCount': 36}",Food
3717,улица Марата 16,16,,30.354253,59.92865,8828113,"Ресторан ""Можно""",45,4ffee95ae4b028be1ebc6a30,"{'tipCount': 1, 'usersCount': 34, 'checkinsCount': 38}",Food
3721,"улица Марата, 9",239,,30.354154,59.929831,14660865,Ginza Project ресторан Гастрономика,45,5481acff498e202d0f1b1921,"{'tipCount': 506, 'usersCount': 8826, 'checkinsCount': 16866}",Food
3733,Невский просп. 57,22,,30.350911,59.932067,6636,Империал,45,4e0accaa62e1a5e7806e52b7,"{'tipCount': 3, 'usersCount': 243, 'checkinsCount': 629}",Food
3741,Невский проспект 63–65,54,,30.352753,59.931846,11313613,Pitas,45,54f48383498ec4bc8189828c,"{'tipCount': 415, 'usersCount': 10658, 'checkinsCount': 23543}",Food
3755,Невский просп. 71,274,,30.35499,59.931544,7398,Невский,45,51867a9f498e0a3c6234045f,"{'tipCount': 0, 'usersCount': 9, 'checkinsCount': 9}",Food
3758,Невский проспект 69,80,,30.354325,59.931634,5341762,Gryzzly bar,45,508a678be4b0e1fc2a0bfb1c,"{'tipCount': 831, 'usersCount': 24884, 'checkinsCount': 60562}",Food
3766,Невский проспект 98,63,,30.355115,59.932045,5880739,Coffeeshop,45,4be5c9992468c9287a8d0043,"{'tipCount': 369, 'usersCount': 21919, 'checkinsCount': 50777}",Food
3782,улица Марата 1,10,,30.354837,59.931228,10496106,Ресторан Невский,45,51867a9f498e0a3c6234045f,"{'tipCount': 0, 'usersCount': 9, 'checkinsCount': 9}",Food
3785,Марата 2,15,,30.355816,59.931242,3445,Сладкоежка,45,4cb07cacf2dbef3bd55e79e5,"{'tipCount': 65, 'usersCount': 2400, 'checkinsCount': 3824}",Food
3990,"улица Марата, 10",34,,30.35499,59.929912,17603676,"ресторан ""МЫ ЖЕ НА ТЫ""",45,580de86038fa2adcc6ea42f1,"{'tipCount': 63, 'usersCount': 1598, 'checkinsCount': 2312}",Food
3991,пр. Лиговский 53,194,,30.359338,59.929136,5978977,"ТЦ ""Галерея""Две палочки""",45,4d307d31789a8cfa8fd62fc6,"{'tipCount': 604, 'usersCount': 23576, 'checkinsCount': 49536}",Food
3994,Лиговский проспект 16,50,,30.361062,59.929556,5533282,Пельменная дюжина,45,4d233dd92eb1f04df39b06c2,"{'tipCount': 374, 'usersCount': 8119, 'checkinsCount': 14358}",Food
4013,Невский проспект 110,100,,30.357918,59.931715,6362840,Нихао,45,51b967be454a172e9103bf2f,"{'tipCount': 158, 'usersCount': 4022, 'checkinsCount': 7192}",Food
4015,Невский просп. 108,168,,30.357496,59.931774,1880,Шоколадница,45,4bd2fc53046076b086e27471,"{'tipCount': 232, 'usersCount': 11453, 'checkinsCount': 19640}",Food
4016,пр. Невский 114,31,,30.35905,59.931688,5321592,Васаби,45,4c0a00407e3fc928fdf9f282,"{'tipCount': 203, 'usersCount': 7069, 'checkinsCount': 10515}",Food
